     3.01           OBSERVATION DATA    G: GPS              RINEX VERSION / TYPE
LEICA GEO OFFICE 8.3                    20250417 120509 UTC PGM / RUN BY / DATE
4560627_10000359                                            MARKER NAME
4560627_10000359                                            MARKER NUMBER
GEODETIC                                                    MARKER TYPE
                                                            OBSERVER / AGENCY
471456              LEICA GX1230GG      9.02                REC # / TYPE / VERS
                    LEIAX1202GG                             ANT # / TYPE
  4422073.8901   718446.1131  4524810.7341                  APPROX POSITION XYZ
        0.0000        0.0000        0.0000                  ANTENNA: DELTA H/E/N
  L1    0.0000        0.0000        0.0644                  ANTENNA: PHASECENTER
  L2    0.0000        0.0000        0.0640                  ANTENNA: PHASECENTER
G    8 C1C L1C D1C S1C C2W L2W D2W S2W                      SYS / # / OBS TYPES
DBHZ                                                        SIGNAL STRENGTH UNIT
     0.100                                                  INTERVAL
  2023    06    27    11    58   11.0000000     GPS         TIME OF FIRST OBS
  2023    06    27    12    29   46.0000000     GPS         TIME OF LAST OBS
     0                                                      RCV CLOCK OFFS APPL
G                                                           SYS / PHASE SHIFTS
R                                                           SYS / PHASE SHIFTS
                                                            END OF HEADER
>                              2  0
> 2023 06 27 11 58 11.0000000  0  5
G02  21831122.080   114723320.81017      1610.578          42.000    21831123.520    89394801.27314      1254.996          28.250  
G27  21721436.400   114146918.43217     -2795.313          43.750    21721441.600    88945672.01519     -2178.176          56.500  
G32  22549031.140   118495957.65017      1515.953          45.500    22549035.700    92334530.80219      1181.270          53.500  
G08  20439332.780   107409417.72818      -658.379          48.250    20439336.960    83695667.86719      -513.035          54.750  
G21  21051615.280   110626984.45717       876.176          44.250    21051616.480    86202849.41716       682.738          36.750  
>                              4  1
R    4 C2P L2P D2P S2P                                      SYS / # / OBS TYPES
> 2023 06 27 11 58 11.1000000  0  6
G02  21831091.460   114723159.80606      1610.031          40.750    21831092.880    89394675.81404      1254.570          28.250  
G27  21721489.580   114147197.89508     -2794.730          47.500    21721494.780    88945889.78209     -2177.723          56.500  
G32  22549002.300   118495806.09808      1515.637          47.500    22549006.860    92334412.70709      1181.023          53.500  
G08  20439345.300   107409483.61808      -658.906          49.250    20439349.500    83695719.21009      -513.445          54.750  
G21  21051598.640   110626896.94807       875.152          44.000    21051599.820    86202781.23006       681.941          36.750  
R01  19640238.380    81657590.02216      1083.500          40.500  
> 2023 06 27 11 58 11.2000000  0  6
G02  21831060.820   114722998.80206      1610.047          40.750    21831062.240    89394550.35204      1254.582          28.250  
G27  21721542.780   114147477.45208     -2795.516          47.500    21721547.980    88946107.62109     -2178.336          56.500  
G32  22548973.460   118495654.56608      1515.254          47.500    22548978.020    92334294.63009      1180.727          53.500  
G08  20439357.860   107409549.54208      -659.379          49.250    20439362.040    83695770.58009      -513.812          54.750  
G21  21051581.960   110626809.46207       874.633          44.000    21051583.180    86202713.05906       681.535          36.750  
R01  19640212.320    81657481.67706      1083.355          41.000  
> 2023 06 27 11 58 11.3000000  0  6
G02  21831030.120   114722837.81406      1609.766          40.750    21831031.600    89394424.90704      1254.363          29.250  
G27  21721595.960   114147756.95708     -2795.215          47.500    21721601.160    88946325.41908     -2178.102          52.250  
G32  22548944.620   118495503.04808      1515.188          47.500    22548949.180    92334176.56608      1180.672          51.500  
G08  20439370.400   107409615.45608      -659.223          50.500    20439374.580    83695821.94109      -513.691          55.250  
G21  21051565.320   110626721.95507       874.969          44.000    21051566.520    86202644.87205       681.797          35.000  
R01  19640185.880    81657373.32806      1083.324          41.250  
> 2023 06 27 11 58 11.4000000  0  6
G02  21830999.480   114722676.81606      1610.074          39.500    21831000.960    89394299.44904      1254.602          29.250  
G27  21721649.160   114148036.45407     -2795.082          47.250    21721654.360    88946543.21308     -2177.996          52.250  
G32  22548915.780   118495351.49207      1515.535          46.750    22548920.340    92334058.47108      1180.945          51.500  
G08  20439382.940   107409681.37308      -659.180          50.500    20439387.120    83695873.30509      -513.660          55.250  
G21  21051548.680   110626634.45107       875.023          45.000    21051549.880    86202576.68905       681.840          35.000  
R01  19640159.820    81657264.98606      1083.418          41.250  
> 2023 06 27 11 58 11.5000000  0  6
G02  21830968.840   114722515.84606      1610.141          39.500    21830970.300    89394174.01705      1254.652          32.250  
G27  21721702.340   114148315.97707     -2795.008          47.250    21721707.560    88946761.02808     -2177.934          51.500  
G32  22548886.940   118495199.93207      1515.754          46.750    22548891.520    92333940.37408      1181.113          51.250  
G08  20439395.480   107409747.27908      -658.973          50.500    20439399.680    83695924.66009      -513.492          54.250  
G21  21051532.020   110626546.92607       875.434          45.000    21051533.120    86202508.49005       682.168          34.250  
R01  19640133.760    81657156.64307      1083.457          41.500  
> 2023 06 27 11 58 11.6000000  0  6
G02  21830938.200   114722354.80506      1610.309          40.500    21830939.640    89394048.52805      1254.781          32.250  
G27  21721755.520   114148595.46307     -2794.762          46.500    21721760.740    88946978.81508     -2177.742          51.500  
G32  22548858.100   118495048.35307      1515.949          46.500    22548862.680    92333822.26008      1181.266          51.250  
G08  20439408.020   107409813.16108      -658.758          50.750    20439412.220    83695975.99909      -513.324          54.250  
G21  21051515.380   110626459.38207       875.418          45.000    21051516.460    86202440.28205       682.156          34.250  
R01  19640107.680    81657048.26507      1083.727          41.500  
> 2023 06 27 11 58 11.7000000  0  6
G02  21830907.540   114722193.76706      1610.512          40.500    21830909.000    89393923.04005      1254.941          32.250  
G27  21721808.720   114148874.96307     -2794.758          46.500    21721813.920    88947196.61408     -2177.738          51.500  
G32  22548829.260   118494896.75607      1515.934          46.500    22548833.820    92333704.13508      1181.254          52.500  
G08  20439420.560   107409879.03008      -658.648          50.750    20439424.760    83696027.32809      -513.242          54.250  
G21  21051498.720   110626371.84407       875.430          45.000    21051499.800    86202372.07405       682.164          34.250  
R01  19640081.620    81656939.90607      1083.734          41.500  
> 2023 06 27 11 58 11.8000000  0  6
G02  21830876.900   114722032.74806      1610.375          40.500    21830878.360    89393797.57004      1254.832          29.250  
G27  21721861.900   114149154.41807     -2794.688          46.500    21721867.100    88947414.37508     -2177.684          51.500  
G32  22548800.400   118494745.17708      1515.590          47.500    22548804.980    92333586.02108      1180.988          52.500  
G08  20439433.080   107409944.90508      -658.734          50.500    20439437.280    83696078.65909      -513.309          54.250  
G21  21051482.040   110626284.30007       875.391          45.000    21051483.140    86202303.86506       682.133          35.500  
R01  19640055.620    81656831.53206      1083.629          41.250  
> 2023 06 27 11 58 11.9000000  0  6
G02  21830846.220   114721871.71006      1610.477          40.250    21830847.720    89393672.08204      1254.914          29.250  
G27  21721915.080   114149433.91207     -2794.980          45.750    21721920.300    88947632.17108     -2177.910          51.500  
G32  22548771.560   118494593.60608      1515.594          47.500    22548776.140    92333467.91408      1180.988          52.500  
G08  20439445.620   107410010.80608      -658.902          50.500    20439449.820    83696130.01209      -513.437          54.250  
G21  21051465.380   110626196.77207       875.363          43.750    21051466.480    86202235.66706       682.113          35.500  
R01  19640029.560    81656723.16906      1083.664          41.250  
> 2023 06 27 11 58 12.0000000  0  6
G02  21830815.580   114721710.62006      1611.031          40.250    21830819.600    89393546.55703      1255.340          19.750  
G27  21721968.260   114149713.36707     -2794.566          45.750    21721973.480    88947849.93208     -2177.582          52.750  
G32  22548742.700   118494441.98808      1516.207          47.500    22548747.300    92333349.77408      1181.469          53.250  
G08  20439458.160   107410076.65908      -658.539          50.000    20439462.360    83696181.32409      -513.156          53.750  
G21  21051448.700   110626109.16607       876.027          43.750    21051449.900    86202167.40206       682.633          37.250  
R01  19640003.500    81656614.80106      1083.625          41.000  
> 2023 06 27 11 58 12.1000000  0  6
G02  21830784.920   114721549.59206      1610.582          39.750    21830788.960    89393421.07703      1254.992          19.750  
G27  21722021.420   114149992.80907     -2794.355          45.750    21722026.660    88948067.68508     -2177.414          52.750  
G32  22548713.860   118494290.41908      1515.590          48.500    22548718.460    92333231.67308      1180.988          53.250  
G08  20439470.700   107410142.52008      -658.555          50.000    20439474.900    83696232.64709      -513.168          53.750  
G21  21051432.040   110626021.60907       875.664          44.000    21051433.240    86202099.18506       682.352          37.250  
R01  19639977.420    81656506.41706      1083.742          40.750  
>                              4  1
R    8 C1C L1C D1C S1C C2P L2P D2P S2P                      SYS / # / OBS TYPES
> 2023 06 27 11 58 12.2000000  0  7
G02  21830754.280   114721388.50206      1610.727          39.750    21830758.320    89393295.54804      1255.105          27.000  
G27  21722074.600   114150272.24507     -2794.402          45.750    21722079.840    88948285.43408     -2177.453          53.250  
G32  22548685.000   118494138.79608      1516.242          48.500    22548689.620    92333113.52708      1181.496          53.000  
G08  20439483.240   107410208.36608      -658.262          50.000    20439487.420    83696283.95509      -512.937          53.750  
G21  21051415.380   110625933.97807       876.305          44.000    21051416.560    86202030.90306       682.852          41.250  
R23  21654664.320   115837861.76606     -2590.785          39.750  
R01                                                                  19639951.360    81656398.02706      1084.242          40.750  
> 2023 06 27 11 58 12.3000000  0  9
G02  21830723.600   114721227.39306      1611.059          40.250    21830727.660    89393170.00704      1255.363          27.000  
G27  21722127.780   114150551.70007     -2794.547          46.000    21722133.020    88948503.19508     -2177.566          53.250  
G32  22548656.140   118493987.17508      1516.309          48.750    22548660.760    92332995.38308      1181.547          53.000  
G08  20439495.760   107410274.20608      -658.340          49.250    20439499.960    83696335.26109      -513.000          53.750  
G21  21051398.700   110625846.38707       875.949          45.750    21051399.900    86201962.65506       682.574          41.250  
R23  21654712.760   115838120.83406     -2590.391          39.750  
R24  19504759.660   104300707.32106       278.910          40.500  
R01  19639916.580   104986604.67207      1393.410          43.750    19639925.320    81656289.65306      1083.762          40.500  
R02  22572878.200   120453204.50707      4397.180          44.250  
> 2023 06 27 11 58 12.4000000  0  9
G02  21830692.960   114721066.33106      1610.938          40.250    21830697.000    89393044.50204      1255.270          27.000  
G27  21722180.960   114150831.15007     -2794.668          46.000    21722186.200    88948720.95408     -2177.660          53.250  
G32  22548627.280   118493835.58308      1515.945          48.750    22548631.920    92332877.25908      1181.266          53.000  
G08  20439508.300   107410340.08108      -658.840          49.250    20439512.500    83696386.59209      -513.391          53.750  
G21  21051382.020   110625758.78907       875.914          45.750    21051383.220    86201894.40006       682.547          41.250  
R23  21654761.780   115838379.93406     -2590.719          38.750  
R24  19504753.680   104300679.47906       277.977          40.500  
R01  19639890.520   104986465.36407      1393.020          43.750    19639899.260    81656181.30406      1083.461          40.750  
R02  22572795.800   120452764.79707      4397.160          44.250  
> 2023 06 27 11 58 12.5000000  0  9
G02  21830662.260   114720905.24106      1611.230          40.250    21830665.980    89392918.97504      1255.500          28.000  
G27  21722234.140   114151110.60207     -2794.656          46.000    21722239.380    88948938.71508     -2177.645          53.250  
G32  22548598.440   118493683.98508      1515.988          48.750    22548603.080    92332759.13509      1181.301          53.500  
G08  20439520.840   107410405.92608      -658.605          49.250    20439525.040    83696437.90209      -513.203          54.000  
G21  21051365.360   110625671.18507       875.941          45.750    21051366.540    86201826.13906       682.562          40.500  
R23  21654810.220   115838639.02306     -2590.973          38.750  
R24  19504748.480   104300651.63806       278.367          40.500  
R01  19639864.560   104986326.03207      1393.285          43.750    19639873.200    81656072.93706      1083.668          41.000  
R02  22572713.380   120452325.06507      4397.406          44.250  
> 2023 06 27 11 58 12.6000000  0  9
G02  21830631.620   114720744.19706      1610.309          38.250    21830635.340    89392793.48904      1254.781          28.000  
G27  21722287.300   114151390.06007     -2794.633          46.250    21722292.560    88949156.47608     -2177.629          53.250  
G32  22548569.600   118493532.40708      1515.762          48.750    22548574.240    92332641.02209      1181.125          53.500  
G08  20439533.380   107410471.83008      -659.020          49.250    20439537.580    83696489.25609      -513.527          54.000  
G21  21051348.680   110625583.59907       875.805          45.500    21051349.860    86201757.89206       682.457          40.500  
R23  21654858.080   115838898.11506     -2590.789          38.750  
R24  19504744.360   104300623.79406       278.355          40.000  
R01  19639838.500   104986186.74707      1392.813          43.750    19639847.140    81655964.60406      1083.297          41.250  
R02  22572630.860   120451885.37707      4396.945          44.750  
> 2023 06 27 11 58 12.7000000  0  9
G02  21830600.980   114720583.22806      1609.375          38.250    21830604.720    89392668.06003      1254.055          23.250  
G27  21722340.480   114151669.52807     -2794.863          46.250    21722345.740    88949374.24808     -2177.809          52.750  
G32  22548540.740   118493380.82508      1515.926          48.750    22548545.400    92332522.91009      1181.254          53.500  
G08  20439545.920   107410537.72008      -659.121          49.250    20439550.120    83696540.59909      -513.605          54.000  
G21  21051332.020   110625496.05507       875.199          45.500    21051333.200    86201689.67706       681.984          40.750  
R23  21654906.500   115839157.19406     -2591.152          39.750  
R24  19504739.160   104300595.97906       277.984          40.000  
R01  19639812.920   104986047.45807      1392.641          43.750    19639821.080    81655856.27006      1083.164          41.250  
R02  22572548.460   120451445.65807      4397.012          44.750  
> 2023 06 27 11 58 12.8000000  0  9
G02  21830570.340   114720422.20306      1609.891          38.250    21830574.080    89392542.59203      1254.457          23.250  
G27  21722393.660   114151948.97007     -2794.555          46.000    21722398.920    88949591.99708     -2177.566          52.750  
G32  22548511.900   118493229.23608      1515.883          48.750    22548516.540    92332404.79109      1181.219          53.500  
G08  20439558.460   107410603.61008      -659.035          49.250    20439562.660    83696591.94409      -513.539          54.000  
G21  21051315.360   110625408.51207       875.426          45.000    21051316.560    86201621.46306       682.160          40.750  
R23  21654955.900   115839416.26206     -2590.887          39.750  
R24  19504734.180   104300568.16906       278.203          40.500  
R01  19639786.860   104985908.15207      1393.070          43.750    19639794.660    81655747.92106      1083.500          41.250  
R02  22572465.980   120451005.94007      4397.172          45.000  
> 2023 06 27 11 58 12.9000000  0  9
G02  21830539.620   114720261.21506      1610.051          38.250    21830543.440    89392417.14903      1254.582          23.250  
G27  21722446.820   114152228.39307     -2794.113          46.000    21722452.100    88949809.73308     -2177.223          53.250  
G32  22548483.040   118493077.64408      1515.965          48.750    22548487.700    92332286.67108      1181.281          53.250  
G08  20439570.980   107410669.50808      -658.934          49.250    20439575.200    83696643.29309      -513.457          54.000  
G21  21051298.700   110625320.97307       875.332          45.000    21051299.900    86201553.25106       682.090          40.750  
R23  21655004.320   115839675.31906     -2590.574          40.250  
R24  19504728.980   104300540.35506       277.941          40.500  
R01  19639760.700   104985768.86507      1392.973          43.750    19639768.600    81655639.59106      1083.422          41.000  
R02  22572383.580   120450566.19007      4397.625          45.000  
> 2023 06 27 11 58 13.0000000  0  9
G02  21830508.980   114720100.19306      1610.168          38.250    21830509.860    89392291.68104      1254.680          29.000  
G27  21722500.000   114152507.83507     -2794.141          46.000    21722505.280    88950027.48208     -2177.246          53.250  
G32  22548454.200   118492926.04108      1516.109          49.000    22548458.860    92332168.54008      1181.395          53.250  
G08  20439583.520   107410735.37808      -658.680          49.250    20439587.740    83696694.62209      -513.262          53.750  
G21  21051282.040   110625233.43507       875.527          45.000    21051283.240    86201485.03706       682.242          40.250  
R23  21655051.380   115839934.39506     -2590.488          40.250  
R24  19504723.080   104300512.55306       277.953          40.750  
R01  19639734.640   104985629.56807      1393.137          43.750    19639742.540    81655531.24906      1083.551          41.250  
R02  22572301.680   120450126.42107      4397.977          44.500  
> 2023 06 27 11 58 13.1000000  0  9
G02  21830478.300   114719939.20506      1609.871          39.000    21830479.240    89392166.24404      1254.449          29.000  
G27  21722553.180   114152787.24007     -2794.047          47.000    21722558.440    88950245.20008     -2177.172          53.250  
G32  22548425.320   118492774.44108      1516.066          49.000    22548430.020    92332050.41608      1181.363          53.250  
G08  20439596.080   107410801.28908      -658.969          49.250    20439600.280    83696745.98309      -513.484          53.750  
G21  21051265.380   110625145.92007       875.125          44.500    21051266.600    86201416.84406       681.926          40.250  
R23  21655099.800   115840193.42207     -2590.113          41.500  
R24  19504717.880   104300484.75206       277.906          40.750  
R01  19639709.540   104985490.27807      1392.922          43.500    19639716.480    81655422.91406      1083.383          41.250  
R02  22572219.280   120449686.63907      4398.016          44.500  
> 2023 06 27 11 58 13.2000000  0  9
G02  21830447.660   114719778.21406      1609.691          39.000    21830448.600    89392040.80304      1254.309          27.500  
G27  21722606.340   114153066.67907     -2794.273          47.000    21722611.620    88950462.94708     -2177.348          52.500  
G32  22548396.480   118492622.83608      1515.996          49.000    22548401.180    92331932.28208      1181.309          52.750  
G08  20439608.620   107410867.21608      -659.281          49.000    20439612.820    83696797.35509      -513.730          53.750  
G21  21051248.740   110625058.41607       874.836          44.500    21051249.940    86201348.66106       681.703          38.250  
R23  21655149.020   115840452.51207     -2590.934          41.500  
R24  19504712.200   104300456.98806       277.613          40.750  
R01  19639683.480   104985351.01007      1392.410          43.500    19639690.440    81655314.59706      1082.984          41.250  
R02  22572136.880   120449246.89707      4397.285          44.500  
> 2023 06 27 11 58 13.3000000  0  9
G02  21830417.040   114719617.20507      1610.074          42.250    21830417.960    89391915.34804      1254.605          27.500  
G27  21722659.500   114153346.07108     -2793.965          47.500    21722664.800    88950680.65508     -2177.109          52.500  
G32  22548367.620   118492471.17808      1516.621          49.250    22548372.320    92331814.10908      1181.793          52.750  
G08  20439621.160   107410933.11908      -659.117          49.000    20439625.360    83696848.71009      -513.602          53.750  
G21  21051232.080   110624970.88807       875.066          44.250    21051233.280    86201280.45806       681.883          38.250  
R23  21655197.440   115840711.52907     -2590.188          41.500  
R24  19504707.020   104300429.19707       277.883          41.750  
R01  19639656.440   104985211.73107      1392.824          42.750    19639664.640    81655206.26906      1083.309          41.250  
R02  22572054.480   120448807.12807      4397.676          44.000  
> 2023 06 27 11 58 13.4000000  0  9
G02  21830386.420   114719456.24907      1609.660          42.250    21830387.340    89391789.93105      1254.285          30.250  
G27  21722712.680   114153625.48908     -2793.965          47.500    21722717.960    88950898.38308     -2177.109          51.500  
G32  22548338.760   118492319.56308      1516.355          49.250    22548343.460    92331695.96908      1181.586          52.250  
G08  20439633.700   107410999.04108      -659.332          49.000    20439637.900    83696900.08008      -513.770          53.250  
G21  21051215.440   110624883.39707       875.098          44.250    21051216.640    86201212.28306       681.906          39.000  
R23  21655245.740   115840970.59407     -2590.594          41.500  
R24  19504701.660   104300401.43307       277.875          41.750  
R01  19639630.400   104985072.47307      1392.688          42.750    19639638.580    81655097.95706      1083.203          41.250  
R02  22571972.080   120448367.36207      4397.648          44.000  
> 2023 06 27 11 58 13.5000000  0 10
G02  21830355.800   114719295.30007      1609.332          42.500    21830355.760    89391664.52305      1254.031          30.250  
G27  21722765.840   114153904.88308     -2794.000          47.500    21722771.140    88951116.09308     -2177.141          51.500  
G32  22548309.900   118492167.93408      1516.227          49.250    22548314.600    92331577.81708      1181.488          52.250  
G08  20439646.240   107411064.96808      -659.406          49.250    20439650.460    83696951.45208      -513.828          53.250  
G10  22159206.640   116447415.89006     -2500.313          35.750    22159212.500    90738269.40807     -1948.297          44.750  
G21  21051198.800   110624795.93007       874.711          44.500    21051199.800    86201144.12406       681.602          39.000  
R23  21655294.180   115841229.62907     -2590.398          41.500  
R24  19504696.460   104300373.65607       277.656          41.750  
R01  19639604.860   104984933.19207      1392.539          43.250    19639612.520    81654989.62706      1083.086          41.000  
R02  22571889.640   120447927.51807      4398.609          44.000  
> 2023 06 27 11 58 13.6000000  0 10
G02  21830325.180   114719134.40707      1609.035          42.500    21830325.160    89391539.15705      1253.801          30.250  
G27  21722819.020   114154184.28608     -2793.949          47.500    21722824.300    88951333.80908     -2177.098          51.500  
G32  22548281.060   118492016.32608      1516.152          49.250    22548285.760    92331459.68308      1181.430          52.250  
G08  20439658.800   107411130.93208      -659.613          49.250    20439663.020    83697002.85208      -513.988          53.250  
G10  22159254.220   116447665.94506     -2500.914          35.750    22159260.080    90738464.25307     -1948.766          44.750  
G21  21051182.180   110624708.48607       874.254          44.500    21051183.160    86201075.98606       681.246          39.000  
R23  21655342.140   115841488.69506     -2590.766          41.000  
R24  19504691.760   104300345.95607       276.957          41.750  
R01  19639578.820   104984793.93407      1392.555          43.250    19639586.480    81654881.31406      1083.098          41.000  
R02  22571806.940   120447487.74607      4397.762          44.000  
> 2023 06 27 11 58 13.7000000  0 11
G01  22087206.140   116069051.42616      2601.086          39.000  
G02  21830294.580   114718973.53707      1608.727          42.500    21830294.540    89391413.81105      1253.563          29.750  
G27  21722872.180   114154463.73808     -2794.563          47.500    21722877.480    88951551.56008     -2177.578          50.750  
G32  22548252.200   118491864.75308      1515.727          49.250    22548256.920    92331341.57608      1181.098          51.000  
G08  20439671.360   107411196.93808      -660.152          49.250    20439675.580    83697054.28708      -514.410          53.250  
G10  22159301.920   116447916.15605     -2501.836          33.750    22159307.700    90738659.21807     -1949.484          44.750  
G21  21051165.560   110624621.08907       873.777          44.500    21051166.520    86201007.88306       680.875          35.500  
R23  21655390.580   115841747.80506     -2591.215          41.000  
R24  19504686.580   104300318.29707       276.059          41.750  
R01  19639552.240   104984654.72507      1392.270          43.250    19639560.440    81654773.03806      1082.875          40.500  
R02  22571724.540   120447048.02007      4397.313          44.000  
> 2023 06 27 11 58 13.8000000  0 11
G01  22087156.660   116068791.34106      2600.703          39.000  
G02  21830263.980   114718812.67007      1608.641          42.250    21830263.940    89391288.46405      1253.492          29.750  
G27  21722925.360   114154743.15908     -2794.180          47.750    21722930.660    88951769.28908     -2177.277          50.750  
G32  22548223.360   118491713.16608      1515.656          47.750    22548228.060    92331223.45608      1181.043          51.000  
G08  20439683.920   107411262.91508      -659.918          49.250    20439688.120    83697105.69808      -514.227          53.250  
G10  22159349.500   116448166.26905     -2500.566          33.750    22159355.300    90738854.10508     -1948.492          48.500  
G21  21051148.920   110624533.69807       873.941          44.500    21051149.900    86200939.78806       681.000          35.500  
R23  21655439.120   115842006.88406     -2591.219          41.000  
R24  19504681.040   104300290.61507       276.699          42.500  
R01  19639526.200   104984515.49907      1392.145          44.250    19639534.060    81654664.75506      1082.777          40.250  
R02  22571641.900   120446608.18207      4398.566          44.250  
> 2023 06 27 11 58 13.9000000  0 11
G01  22087107.320   116068531.34305      2599.527          35.000  
G02  21830233.400   114718651.82407      1608.223          42.250    21830233.320    89391163.13505      1253.168          34.000  
G27  21722978.540   114155022.58708     -2794.281          47.750    21722983.820    88951987.02108     -2177.359          50.750  
G32  22548194.520   118491561.60508      1515.605          47.750    22548199.220    92331105.35708      1181.004          50.750  
G08  20439696.480   107411328.93408      -660.270          49.250    20439700.700    83697157.14309      -514.500          53.750  
G10  22159397.240   116448416.40105     -2500.547          33.750    22159403.000    90739049.01508     -1948.477          48.500  
G21  21051132.300   110624446.34407       873.223          44.500    21051133.280    86200871.71906       680.441          36.500  
R23  21655487.560   115842265.98106     -2590.668          38.500  
R24  19504675.880   104300262.98307       276.352          42.500  
R01  19639499.940   104984376.28207      1392.230          44.250    19639508.000    81654556.47106      1082.848          40.500  
R02  22571559.500   120446168.42607      4397.707          44.250  
> 2023 06 27 11 58 14.0000000  0 11
G01  22087057.840   116068271.31605      2600.254          35.000  
G02  21830202.800   114718491.04307      1607.719          43.750    21830202.580    89391037.85405      1252.773          34.000  
G27  21723031.700   114155301.98708     -2793.789          47.750    21723037.000    88952204.73108     -2176.977          50.750  
G32  22548165.680   118491410.02107      1515.988          47.000    22548170.400    92330987.24008      1181.301          50.750  
G08  20439709.040   107411394.94208      -660.230          49.750    20439713.260    83697208.58109      -514.465          53.750  
G10  22159444.840   116448666.52505     -2501.211          35.000    22159450.600    90739243.92707     -1948.996          47.250  
G21  21051115.660   110624358.95207       873.520          44.250    21051116.680    86200803.62206       680.672          36.500  
R23  21655535.740   115842525.01706     -2590.625          38.500  
R24  19504671.060   104300235.33907       276.328          44.500  
R01  19639473.900   104984237.07007      1392.047          44.750    19639481.960    81654448.19306      1082.695          40.000  
R02  22571476.840   120445728.60907      4398.180          43.250  
> 2023 06 27 11 58 14.1000000  0 11
G01  22087008.360   116068011.24405      2600.375          35.000  
G02  21830172.200   114718330.21307      1608.156          43.750    21830171.960    89390912.52705      1253.113          34.000  
G27  21723084.880   114155581.39208     -2794.070          47.750    21723090.160    88952422.44508     -2177.199          50.750  
G32  22548136.840   118491258.44807      1515.805          47.000    22548141.560    92330869.13408      1181.160          50.250  
G08  20439721.600   107411460.96408      -660.262          49.750    20439725.820    83697260.02609      -514.488          53.750  
G10  22159492.460   116448916.72205     -2501.715          35.000    22159498.200    90739438.89307     -1949.387          47.250  
G21  21051099.040   110624271.61607       873.512          44.250    21051100.060    86200735.56606       680.668          36.500  
R23  21655584.180   115842784.11106     -2590.668          36.500  
R24  19504665.900   104300207.71907       276.180          44.500  
R01  19639447.840   104984097.87107      1391.961          44.750    19639455.920    81654339.92506      1082.637          40.250  
R02  22571394.420   120445288.80607      4398.031          43.250  
> 2023 06 27 11 58 14.2000000  0 11
G01  22086958.900   116067751.31406      2599.594          36.250  
G02  21830141.600   114718169.44307      1607.508          43.750    21830141.380    89390787.25205      1252.605          32.000  
G27  21723138.060   114155860.80708     -2794.203          47.750    21723143.340    88952640.17008     -2177.301          50.750  
G32  22548107.980   118491106.88207      1515.629          45.750    22548112.720    92330751.03308      1181.020          50.250  
G08  20439734.180   107411527.01708      -660.465          49.250    20439738.380    83697311.49609      -514.648          53.500  
G10  22159540.080   116449166.97505     -2502.211          35.000    22159545.820    90739633.90307     -1949.773          46.500  
G21  21051082.440   110624184.30407       873.129          44.250    21051083.440    86200667.53106       680.367          37.750  
R23  21655634.200   115843043.21706     -2591.457          36.500  
R24  19504660.800   104300180.13207       275.855          43.750  
R01  19639421.800   104983958.69407      1391.703          44.750    19639429.880    81654231.67206      1082.438          40.250  
R02  22571311.200   120444848.98607      4398.195          42.000  
> 2023 06 27 11 58 14.3000000  0 11
G01  22086909.380   116067491.38406      2598.938          36.250  
G02  21830111.040   114718008.67807      1607.691          43.500    21830110.780    89390661.97705      1252.750          32.000  
G27  21723191.220   114156140.21208     -2794.102          47.750    21723196.500    88952857.88608     -2177.223          50.750  
G32  22548079.140   118490955.32907      1515.383          45.750    22548083.880    92330632.94208      1180.828          50.250  
G08  20439746.740   107411593.05508      -660.484          49.250    20439750.960    83697362.95609      -514.664          53.500  
G10  22159587.520   116449416.54205     -2495.664          35.000    22159593.320    90739828.37707     -1944.672          46.500  
G21  21051065.840   110624097.01807       873.215          44.750    21051066.820    86200599.51506       680.434          37.750  
R23  21655682.640   115843302.30606     -2590.941          35.750  
R24  19504655.640   104300152.53607       275.777          43.750  
R01  19639395.520   104983819.51907      1391.637          45.250    19639403.920    81654123.42506      1082.383          40.000  
R02  22571228.780   120444409.19307      4397.836          42.000  
> 2023 06 27 11 58 14.4000000  0 10
G01  22086859.900   116067231.43606      2599.293          35.500  
G02  21830080.440   114717847.90807      1607.590          43.500    21830080.180    89390536.69904      1252.672          29.250  
G27  21723244.400   114156419.63108     -2794.121          47.750    21723249.680    88953075.61008     -2177.238          51.250  
G32  22548050.300   118490803.72407      1516.160          45.750    22548055.020    92330514.81308      1181.434          49.750  
G08  20439759.320   107411659.09208      -660.406          48.500    20439763.520    83697414.41308      -514.602          52.750  
G21  21051049.220   110624009.68407       873.297          44.750    21051050.200    86200531.46106       680.500          38.000  
R23  21655731.140   115843561.37406     -2590.789          35.750  
R24  19504650.160   104300124.94907       275.918          43.750  
R01  19639369.480   104983680.32007      1391.992          45.250    19639377.880    81654015.15506      1082.660          39.750  
R02  22571146.580   120443969.32607      4398.398          42.000  
> 2023 06 27 11 58 14.5000000  0 10
G01  22086810.260   116066971.51106      2599.223          35.500  
G02  21830049.880   114717687.17007      1607.082          42.250    21830049.820    89390411.44704      1252.273          29.250  
G27  21723297.560   114156699.05108     -2794.547          47.750    21723302.860    88953293.33808     -2177.574          51.250  
G32  22548021.460   118490652.19507      1515.211          44.250    22548026.220    92330396.74008      1180.695          49.750  
G08  20439771.880   107411725.17708      -661.051          48.500    20439776.100    83697465.90808      -515.105          52.750  
G21  21051032.620   110623922.41407       872.332          45.750    21051033.480    86200463.45906       679.742          38.000  
R23  21655779.580   115843820.51906     -2591.648          35.750  
R24  19504645.020   104300097.41507       275.199          41.750  
R01  19639343.280   104983541.17807      1391.234          45.500    19639351.860    81653906.93506      1082.070          40.000  
R02  22571064.160   120443529.54606      4398.199          39.500  
> 2023 06 27 11 58 14.6000000  0 10
G01  22086760.780   116066711.55006      2599.543          36.000  
G02  21830019.280   114717526.43707      1607.355          42.250    21830019.240    89390286.19605      1252.484          29.750  
G27  21723350.760   114156978.52508     -2794.785          47.750    21723356.040    88953511.11008     -2177.758          51.750  
G32  22547992.620   118490500.68707      1515.168          44.250    22547997.400    92330278.68408      1180.660          50.250  
G08  20439784.460   107411791.27708      -661.035          48.500    20439788.680    83697517.41508      -515.094          52.500  
G21  21051016.000   110623835.14907       872.520          45.750    21051016.880    86200395.46006       679.891          37.250  
R23  21655828.920   115844079.70206     -2591.348          36.000  
R24  19504639.700   104300069.94207       274.336          41.750  
R01  19639317.260   104983402.06507      1390.875          45.500    19639325.820    81653798.73206      1081.793          39.750  
R02  22570981.300   120443089.70506      4398.520          39.500  
> 2023 06 27 11 58 14.7000000  0 10
G01  22086711.280   116066451.65206      2598.824          36.000  
G02  21829988.700   114717365.75607      1606.602          43.000    21829988.660    89390160.98805      1251.898          29.750  
G27  21723403.940   114157257.96607     -2794.473          47.250    21723409.200    88953728.85708     -2177.516          51.750  
G32  22547963.800   118490349.15307      1515.059          44.250    22547968.560    92330160.60808      1180.578          50.250  
G08  20439797.040   107411857.38308      -661.160          48.500    20439801.260    83697568.92608      -515.191          52.500  
G21  21050999.400   110623747.89407       872.484          45.500    21051000.280    86200327.46706       679.863          37.250  
R23  21655877.360   115844338.82606     -2591.438          36.000  
R24  19504634.560   104300042.43206       275.039          40.000  
R01  19639291.400   104983262.92707      1391.211          46.000    19639299.800    81653690.51206      1082.055          40.000  
R02  22570898.880   120442649.92306      4397.672          37.750  
> 2023 06 27 11 58 14.8000000  0 10
G01  22086661.820   116066191.73306      2598.855          36.000  
G02  21829958.120   114717205.06507      1606.781          43.000    21829958.080    89390035.76805      1252.039          29.750  
G27  21723457.120   114157537.42907     -2794.500          47.250    21723462.380    88953946.61808     -2177.535          51.750  
G32  22547934.960   118490197.64307      1515.277          44.250    22547939.740    92330042.54708      1180.746          50.250  
G08  20439809.620   107411923.51008      -661.238          48.500    20439813.840    83697620.45508      -515.250          52.500  
G21  21050982.820   110623660.67907       872.309          45.500    21050983.680    86200259.50506       679.727          37.250  
R23  21655923.860   115844598.01705     -2591.078          34.250  
R24  19504629.460   104300014.88806       275.816          40.000  
R01  19639265.380   104983123.84107      1390.988          46.000    19639273.920    81653582.33306      1081.879          40.000  
R02  22570817.620   120442210.05806      4398.477          37.750  
> 2023 06 27 11 58 14.9000000  0 10
G01  22086612.460   116065931.88206      2598.730          37.250  
G02  21829927.560   114717044.35807      1607.121          43.000    21829927.500    89389910.54004      1252.301          28.750  
G27  21723510.280   114157816.87907     -2794.434          47.250    21723515.560    88954164.36908     -2177.484          52.000  
G32  22547906.120   118490046.16107      1514.801          44.250    22547910.900    92329924.51408      1180.375          49.250  
G08  20439822.220   107411989.63608      -661.367          48.500    20439826.420    83697671.98108      -515.352          52.500  
G21  21050966.220   110623573.45607       872.184          45.500    21050967.080    86200191.53706       679.629          38.500  
R23  21655972.300   115844857.16505     -2590.816          34.250  
R24  19504624.320   104299987.37506       274.824          40.000  
R01  19639239.680   104982984.73807      1390.941          46.000    19639247.900    81653474.14106      1081.844          40.000  
R02  22570735.200   120441770.26006      4398.102          37.750  
> 2023 06 27 11 58 15.0000000  0 10
G01  22086563.000   116065671.93306      2599.461          37.250  
G02  21829897.000   114716883.76207      1605.941          43.500    21829896.560    89389785.39804      1251.379          28.750  
G27  21723563.460   114158096.37807     -2794.941          46.750    21723568.760    88954382.16308     -2177.875          52.000  
G32  22547877.300   118489894.68407      1514.867          43.250    22547882.120    92329806.48008      1180.426          49.250  
G08  20439834.800   107412055.80808      -661.836          48.500    20439839.020    83697723.54308      -515.715          52.500  
G21  21050949.640   110623486.29607       871.527          45.750    21050950.580    86200123.62206       679.117          38.500  
R23  21656021.500   115845116.32705     -2593.688          34.250  
R24  19504619.760   104299959.99906       273.469          36.750  
R01  19639213.680   104982845.70307      1390.117          46.000    19639221.900    81653366.00006      1081.203          40.250  
R02  22570652.860   120441330.46206      4397.703          37.750  
> 2023 06 27 11 58 15.1000000  0 10
G01  22086513.700   116065412.21406      2597.613          36.750  
G02  21829866.440   114716723.11807      1606.289          43.500    21829865.980    89389660.21905      1251.648          31.750  
G27  21723616.660   114158375.86707     -2795.039          46.750    21723621.940    88954599.94608     -2177.953          52.500  
G32  22547848.460   118489743.27607      1514.023          43.250    22547853.300    92329688.50408      1179.770          48.750  
G08  20439847.400   107412121.97908      -661.914          48.500    20439851.600    83697775.10709      -515.777          53.500  
G21  21050933.040   110623399.12307       871.480          45.750    21050934.000    86200055.69706       679.078          38.750  
R23  21656069.940   115845375.44505     -2591.277          30.000  
R24  19504614.640   104299932.62806       273.145          36.750  
R01  19639187.940   104982706.67007      1390.223          46.000    19639195.880    81653257.86106      1081.285          40.250  
R02  22570570.440   120440890.66906      4397.703          37.750  
> 2023 06 27 11 58 15.2000000  0 10
G01  22086464.200   116065152.06806      2601.859          36.750  
G02  21829835.880   114716562.47707      1606.371          44.500    21829835.420    89389535.04205      1251.715          31.750  
G27  21723669.840   114158655.35907     -2794.992          46.500    21723675.120    88954817.73208     -2177.914          52.500  
G32  22547819.640   118489591.83707      1514.074          41.750    22547824.500    92329570.50308      1179.809          48.750  
G08  20439860.000   107412188.16908      -661.984          49.250    20439864.200    83697826.68309      -515.832          53.500  
G21  21050916.480   110623311.96807       871.344          45.750    21050917.420    86199987.78406       678.973          38.750  
R23  21656117.040   115845634.67105     -2591.898          30.000  
R24  19504608.520   104299905.21106       273.430          35.750  
R01  19639161.940   104982567.63407      1390.102          45.750    19639169.880    81653149.72006      1081.191          40.250  
R02  22570487.860   120440450.89506      4397.781          39.000  
> 2023 06 27 11 58 15.3000000  0  9
G02  21829805.340   114716401.90407      1605.660          44.500    21829804.860    89389409.91605      1251.160          31.750  
G27  21723723.040   114158934.89007     -2795.348          46.500    21723728.320    88955035.55109     -2178.191          53.500  
G32  22547790.840   118489440.46007      1513.543          41.750    22547795.680    92329452.54808      1179.395          48.750  
G08  20439872.600   107412254.38508      -662.219          49.250    20439876.800    83697878.27809      -516.016          53.500  
G21  21050899.900   110623224.87607       870.910          45.750    21050900.840    86199919.92306       678.637          38.750  
R23  21656165.500   115845893.93705     -2592.492          32.750  
R24  19504603.400   104299877.90706       272.523          35.750  
R01  19639135.860   104982428.65707      1389.750          45.750    19639143.880    81653041.62706      1080.914          40.000  
R02  22570405.440   120440011.15506      4397.754          39.000  
> 2023 06 27 11 58 15.4000000  0  9
G02  21829774.780   114716241.32807      1605.820          44.500    21829774.300    89389284.79205      1251.285          31.750  
G27  21723776.220   114159214.41607     -2795.207          46.500    21723781.500    88955253.36309     -2178.082          53.500  
G32  22547762.040   118489289.06807      1514.051          42.250    22547766.880    92329334.58408      1179.793          48.750  
G08  20439885.200   107412320.59608      -662.289          49.500    20439889.400    83697929.87308      -516.070          53.250  
G21  21050883.300   110623137.74307       871.168          45.750    21050884.260    86199852.02806       678.836          37.500  
R23  21656213.960   115846153.14105     -2592.703          32.750  
R24  19504598.100   104299850.47005       274.363          34.500  
R01  19639109.860   104982289.65307      1389.676          45.750    19639117.880    81652933.51106      1080.855          40.000  
R02  22570323.320   120439571.41806      4397.512          39.250  
> 2023 06 27 11 58 15.5000000  0  9
G02  21829744.220   114716080.77407      1605.652          44.000    21829744.700    89389159.68305      1251.152          31.750  
G27  21723829.420   114159493.97607     -2795.500          47.000    21723834.700    88955471.20209     -2178.316          53.500  
G32  22547733.220   118489137.70207      1513.426          42.250    22547738.060    92329216.63408      1179.301          48.750  
G08  20439897.800   107412386.85708      -662.668          49.500    20439902.020    83697981.50708      -516.363          53.250  
G21  21050866.740   110623050.68207       870.559          45.000    21050867.800    86199784.18906       678.363          37.500  
R23  21656262.440   115846412.43605     -2592.359          34.250  
R24  19504593.000   104299823.21605       273.086          34.500  
R01  19639084.080   104982150.74107      1389.219          46.000    19639091.900    81652825.46506      1080.504          40.250  
R02  22570240.900   120439131.69206      4396.805          39.250  
> 2023 06 27 11 58 15.6000000  0  9
G02  21829713.680   114715920.25407      1605.277          44.000    21829714.160    89389034.60205      1250.863          33.000  
G27  21723882.620   114159773.49907     -2795.203          47.000    21723887.900    88955689.01209     -2178.086          53.750  
G32  22547704.420   118488986.36507      1513.023          42.250    22547709.260    92329098.70507      1178.988          46.750  
G08  20439910.420   107412453.12008      -662.664          49.750    20439914.620    83698033.13909      -516.363          53.500  
G21  21050850.180   110622963.63307       870.488          45.000    21050851.220    86199716.36006       678.309          38.250  
R23  21656311.360   115846671.73405     -2591.652          34.250  
R24  19504587.140   104299795.98705       271.852          34.500  
R01  19639058.080   104982011.79907      1389.508          46.000    19639065.900    81652717.39906      1080.723          40.000  
R02  22570158.140   120438691.91506      4397.605          39.250  
> 2023 06 27 11 58 15.7000000  0  9
G02  21829683.140   114715759.73607      1605.105          44.500    21829683.620    89388909.52105      1250.727          33.000  
G27  21723935.800   114160053.06708     -2795.742          48.000    21723941.100    88955906.85509     -2178.504          53.750  
G32  22547675.600   118488835.04607      1513.391          42.000    22547680.480    92328980.79007      1179.273          46.750  
G08  20439923.020   107412519.40208      -663.078          49.750    20439927.240    83698084.78909      -516.684          53.500  
G21  21050833.620   110622876.59907       869.848          44.750    21050834.660    86199648.54206       677.812          38.250  
R23  21656359.820   115846930.97005     -2593.262          34.250  
R24  19504582.060   104299768.75505       272.664          33.750  
R01  19639032.060   104981872.87507      1388.926          46.750    19639039.920    81652609.34606      1080.273          39.750  
R02  22570075.740   120438252.22906      4396.898          38.750  
> 2023 06 27 11 58 15.8000000  0  9
G02  21829652.600   114715599.27607      1604.488          44.500    21829653.080    89388784.48806      1250.246          35.500  
G27  21723989.020   114160332.68508     -2796.211          48.000    21723994.300    88956124.73909     -2178.859          53.750  
G32  22547646.820   118488683.72207      1513.082          42.000    22547651.680    92328862.87107      1179.031          46.500  
G08  20439935.660   107412585.74708      -663.551          49.750    20439939.860    83698136.48808      -517.051          53.000  
G21  21050817.060   110622789.58607       869.980          44.750    21050818.100    86199580.74406       677.914          38.500  
R23  21656408.260   115847190.41305     -2594.730          33.500  
R24  19504578.120   104299741.52105       272.199          33.750  
R01  19639006.080   104981734.02707      1388.520          46.750    19639013.720    81652501.34806      1079.953          39.750  
R02  22569993.420   120437812.62506      4396.266          38.750  
> 2023 06 27 11 58 15.9000000  0  9
G02  21829622.080   114715438.84507      1604.230          44.250    21829622.540    89388659.47406      1250.047          35.500  
G27  21724042.240   114160612.30308     -2796.309          48.750    21724047.520    88956342.61909     -2178.969          53.750  
G32  22547618.020   118488532.46107      1512.672          43.500    22547622.880    92328745.00307      1178.715          46.500  
G08  20439948.280   107412652.08908      -663.488          49.750    20439952.500    83698188.18108      -517.004          53.000  
G21  21050800.500   110622702.62807       869.570          44.500    21050801.560    86199512.98606       677.594          38.500  
R23  21656456.740   115847449.73405     -2594.328          33.500  
R24  19504573.040   104299714.33706       271.922          38.000  
R01  19638980.300   104981595.17807      1388.094          47.250    19638987.740    81652393.35506      1079.621          39.750  
R02  22569911.020   120437372.95506      4396.633          39.750  
> 2023 06 27 11 58 16.0000000  0  9
G02  21829591.540   114715278.41707      1604.250          44.250    21829591.520    89388534.46306      1250.063          35.500  
G27  21724095.440   114160891.95208     -2796.516          48.750    21724100.740    88956560.52809     -2179.105          53.750  
G32  22547589.220   118488381.21807      1512.457          43.500    22547594.140    92328627.14607      1178.535          46.500  
G08  20439960.920   107412718.48108      -664.031          49.750    20439965.140    83698239.91708      -517.426          53.000  
G21  21050783.940   110622615.65207       869.586          44.500    21050785.100    86199445.21506       677.605          38.500  
R23  21656505.800   115847709.11006     -2593.668          36.500  
R24  19504567.680   104299687.16106       271.723          38.000  
R01  19638954.340   104981456.37207      1387.980          47.250    19638961.780    81652285.39306      1079.531          39.750  
R02  22569828.820   120436933.30606      4396.453          39.750  
> 2023 06 27 11 58 16.1000000  0  9
G02  21829561.040   114715117.99407      1604.160          44.250    21829560.980    89388409.46005      1249.992          34.000  
G27  21724148.680   114161171.63008     -2796.848          48.750    21724153.960    88956778.45708     -2179.406          53.000  
G32  22547560.440   118488230.00007      1511.961          43.500    22547565.360    92328509.30107      1178.148          47.250  
G08  20439973.560   107412784.86808      -664.090          49.500    20439977.760    83698291.65008      -517.473          52.750  
G21  21050767.400   110622528.75207       869.109          44.500    21050768.560    86199377.50106       677.234          38.000  
R23  21656554.280   115847968.49606     -2594.203          36.500  
R24  19504562.580   104299659.97506       271.750          38.000  
R01  19638928.220   104981317.58007      1387.770          47.250    19638935.820    81652177.44306      1079.367          39.750  
R02  22569746.420   120436493.66606      4396.297          39.750  
> 2023 06 27 11 58 16.2000000  0  9
G02  21829530.520   114714957.63407      1603.484          44.250    21829530.480    89388284.50705      1249.465          34.000  
G27  21724201.900   114161451.31408     -2796.965          48.750    21724207.180    88956996.39008     -2179.563          53.000  
G32  22547531.680   118488078.78607      1511.945          45.250    22547536.580    92328391.46607      1178.137          47.250  
G08  20439986.200   107412851.30508      -664.559          49.500    20439990.400    83698343.41808      -517.836          52.750  
G21  21050750.860   110622441.84407       868.707          43.750    21050752.020    86199309.78206       676.922          38.000  
R23  21656602.260   115848227.94606     -2594.551          36.500  
R24  19504557.720   104299632.79906       271.660          40.250  
R01  19638902.260   104981178.83007      1387.234          47.000    19638909.860    81652069.52206      1078.953          39.500  
R02  22569664.080   120436054.07806      4395.719          41.250  
> 2023 06 27 11 58 16.3000000  0  9
G02  21829500.000   114714797.29207      1603.445          44.250    21829499.960    89388159.56506      1249.434          37.000  
G27  21724255.120   114161731.03108     -2797.289          48.750    21724260.400    88957214.35208     -2179.711          52.750  
G32  22547502.900   118487927.64307      1511.324          45.250    22547507.820    92328273.68607      1177.652          46.000  
G08  20439998.840   107412917.76008      -664.711          49.500    20440003.060    83698395.20408      -517.957          53.250  
G21  21050734.300   110622354.93707       868.863          43.750    21050735.480    86199242.06206       677.043          38.000  
R23  21656650.780   115848487.44506     -2595.613          37.250  
R24  19504552.660   104299605.70306       270.863          40.250  
R01  19638876.360   104981040.12307      1387.043          47.000    19638883.840    81651961.63506      1078.805          39.500  
R02  22569581.700   120435614.53306      4395.199          41.250  
> 2023 06 27 11 58 16.4000000  0  9
G02  21829469.500   114714636.93707      1603.477          44.500    21829469.440    89388034.61306      1249.457          37.000  
G27  21724308.360   114162010.78608     -2797.656          48.750    21724313.640    88957432.34008     -2179.996          52.750  
G32  22547474.140   118487776.52707      1511.145          45.000    22547479.060    92328155.92307      1177.512          46.000  
G08  20440011.500   107412984.24108      -665.020          49.750    20440015.700    83698447.01208      -518.195          53.250  
G21  21050717.760   110622268.07907       868.527          44.000    21050718.960    86199174.38306       676.781          38.000  
R23  21656698.960   115848747.00206     -2596.266          37.250  
R24  19504547.840   104299578.67507       270.207          41.500  
R01  19638850.420   104980901.42407      1386.680          46.750    19638857.900    81651853.75806      1078.520          39.500  
R02  22569498.960   120435174.96706      4395.113          41.250  
> 2023 06 27 11 58 16.5000000  0  9
G02  21829438.980   114714476.64307      1602.930          44.500    21829439.220    89387909.71106      1249.035          37.000  
G27  21724361.600   114162290.54808     -2797.766          48.750    21724366.880    88957650.33708     -2180.082          52.500  
G32  22547445.360   118487625.41307      1511.039          45.000    22547450.340    92328038.15907      1177.418          45.750  
G08  20440024.160   107413050.76208      -665.281          49.750    20440028.360    83698498.84608      -518.398          53.250  
G21  21050701.240   110622181.23907       868.117          44.000    21050702.360    86199106.72006       676.461          38.000  
R23  21656747.480   115849006.53506     -2595.684          38.000  
R24  19504542.780   104299551.61407       270.695          41.500  
R01  19638824.660   104980762.75507      1386.535          46.750    19638831.960    81651745.90006      1078.410          39.500  
R02  22569416.600   120434735.41706      4395.473          41.250  
> 2023 06 27 11 58 16.6000000  0  9
G02  21829408.480   114714316.33807      1602.738          44.500    21829408.700    89387784.80005      1248.887          34.750  
G27  21724414.840   114162570.35508     -2798.160          48.750    21724420.120    88957868.36808     -2180.387          52.500  
G32  22547416.600   118487474.30407      1510.988          45.750    22547421.580    92327920.40407      1177.379          45.750  
G08  20440036.820   107413117.27808      -665.281          49.500    20440041.020    83698550.68208      -518.398          53.000  
G21  21050684.740   110622094.44707       868.160          44.000    21050685.840    86199039.08906       676.496          37.750  
R23  21656795.720   115849266.08206     -2595.086          38.000  
R24  19504537.600   104299524.57207       270.402          43.000  
R01  19638798.720   104980624.14707      1386.074          46.750    19638806.020    81651638.09406      1078.051          39.500  
R02  22569334.800   120434295.92607      4394.836          42.000  
> 2023 06 27 11 58 16.7000000  0  9
G02  21829377.980   114714156.05407      1602.637          44.500    21829378.200    89387659.90505      1248.809          34.750  
G27  21724468.080   114162850.15408     -2798.199          49.250    21724473.360    88958086.39108     -2180.418          52.500  
G32  22547387.820   118487323.23007      1510.641          45.750    22547392.840    92327802.67407      1177.105          45.750  
G08  20440049.480   107413183.83808      -665.773          49.500    20440053.700    83698602.54808      -518.781          53.000  
G21  21050668.220   110622007.65207       867.621          44.000    21050669.320    86198971.46106       676.078          37.750  
R23  21656844.260   115849525.65306     -2595.516          38.000  
R24  19504532.560   104299497.60207       269.641          43.000  
R01  19638772.780   104980485.53607      1385.918          45.750    19638780.100    81651530.28106      1077.930          39.750  
R02  22569252.420   120433856.42107      4395.250          42.000  
> 2023 06 27 11 58 16.8000000  0  9
G02  21829347.500   114713995.82007      1602.387          44.500    21829347.720    89387535.05006      1248.613          36.750  
G27  21724521.340   114163129.98008     -2798.348          49.250    21724526.620    88958304.43508     -2180.535          51.750  
G32  22547359.080   118487172.18507      1510.184          45.750    22547364.100    92327684.96807      1176.750          43.750  
G08  20440062.160   107413250.40608      -665.848          49.500    20440066.360    83698654.42108      -518.840          53.250  
G21  21050651.720   110621920.84407       867.949          44.000    21050652.800    86198903.82106       676.332          37.500  
R23  21656892.780   115849785.26906     -2596.684          38.000  
R24  19504527.660   104299470.60807       269.660          43.000  
R01  19638746.860   104980346.97607      1385.520          45.750    19638754.180    81651422.51006      1077.617          39.750  
R02  22569169.980   120433416.91407      4395.195          42.000  
> 2023 06 27 11 58 16.9000000  0  9
G02  21829317.000   114713835.58407      1602.250          44.250    21829317.220    89387410.19006      1248.508          36.750  
G27  21724574.600   114163409.83708     -2798.629          49.500    21724579.860    88958522.50508     -2180.703          51.750  
G32  22547330.340   118487021.13607      1510.094          45.500    22547335.340    92327567.25607      1176.680          43.750  
G08  20440074.820   107413316.99308      -665.930          49.500    20440079.040    83698706.31108      -518.902          53.250  
G21  21050635.220   110621834.10707       867.488          44.000    21050636.300    86198836.23306       675.973          37.500  
R23  21656941.320   115850044.93006     -2596.461          38.000  
R24  19504522.620   104299443.65707       269.328          43.500  
R01  19638721.040   104980208.40807      1385.656          45.750    19638728.260    81651314.73506      1077.727          39.500  
R02  22569087.620   120432977.43307      4394.992          43.000  
> 2023 06 27 11 58 17.0000000  0  9
G02  21829286.520   114713675.37607      1602.266          44.250    21829286.740    89387285.35306      1248.520          38.250  
G27  21724627.860   114163689.72808     -2799.016          49.500    21724633.120    88958740.60208     -2181.059          51.750  
G32  22547301.580   118486870.12507      1510.344          45.500    22547306.540    92327449.57607      1176.871          43.500  
G08  20440087.500   107413383.61308      -666.223          49.500    20440091.720    83698758.22508      -519.125          53.000  
G21  21050618.700   110621747.36007       867.320          44.000    21050619.820    86198768.63806       675.844          37.250  
R23  21656989.380   115850304.56006     -2596.504          36.500  
R24  19504516.980   104299416.73007       269.109          43.500  
R01  19638695.140   104980069.88807      1385.137          45.750    19638702.340    81651206.99706      1077.340          39.000  
R02  22569005.160   120432537.99707      4394.363          43.000  
> 2023 06 27 11 58 17.1000000  0  9
G02  21829256.020   114713515.15007      1601.852          43.750    21829256.260    89387160.50206      1248.195          38.250  
G27  21724681.120   114163969.60608     -2798.938          49.750    21724686.380    88958958.68708     -2181.000          51.750  
G32  22547272.840   118486719.13507      1509.883          45.000    22547277.820    92327331.92007      1176.512          43.500  
G08  20440100.180   107413450.21308      -666.094          49.500    20440104.400    83698810.12308      -519.027          53.000  
G21  21050602.180   110621660.60207       867.500          44.500    21050603.320    86198701.03806       675.980          37.250  
R23  21657037.900   115850564.19706     -2596.496          36.500  
R24  19504511.960   104299389.78107       269.469          43.750  
R01  19638668.980   104979931.36607      1385.070          46.000    19638676.420    81651099.26006      1077.270          39.500  
R02  22568922.800   120432098.50907      4394.758          43.000  
> 2023 06 27 11 58 17.2000000  0  9
G02  21829225.540   114713354.92907      1602.086          43.750    21829225.760    89387035.65606      1248.379          38.250  
G27  21724734.380   114164249.49108     -2798.977          49.750    21724739.640    88959176.77608     -2181.027          51.750  
G32  22547244.100   118486568.13107      1509.734          45.000    22547249.080    92327214.24807      1176.398          43.500  
G08  20440112.860   107413516.86008      -666.437          49.500    20440117.080    83698862.06008      -519.293          53.000  
G21  21050585.680   110621573.88107       867.098          44.500    21050586.820    86198633.46306       675.668          37.250  
R23  21657086.660   115850823.92106     -2596.684          38.500  
R24  19504506.980   104299362.86807       268.934          43.750  
R01  19638643.060   104979792.87807      1384.695          46.000    19638650.520    81650991.54506      1076.977          39.500  
R02  22568840.560   120431659.03907      4394.656          43.000  
> 2023 06 27 11 58 17.3000000  0  9
G02  21829195.060   114713194.72907      1601.945          43.750    21829195.280    89386910.82506      1248.270          37.000  
G27  21724787.640   114164529.39608     -2799.152          49.750    21724792.900    88959394.88508     -2181.164          52.000  
G32  22547215.360   118486417.14907      1510.129          45.000    22547220.340    92327096.59607      1176.703          45.000  
G08  20440125.540   107413583.52808      -666.770          49.250    20440129.760    83698914.01108      -519.555          53.000  
G21  21050569.180   110621487.15707       867.051          44.500    21050570.300    86198565.88606       675.633          36.250  
R23  21657135.180   115851083.53906     -2596.652          38.500  
R24  19504501.960   104299335.95107       269.047          43.750  
R01  19638617.180   104979654.37907      1384.824          46.000    19638624.540    81650883.82406      1077.082          39.250  
R02  22568758.220   120431219.63307      4394.148          43.000  
> 2023 06 27 11 58 17.4000000  0  9
G02  21829164.580   114713034.54807      1601.641          44.250    21829164.800    89386786.00906      1248.031          37.000  
G27  21724840.920   114164809.36308     -2799.715          49.500    21724846.180    88959613.03908     -2181.605          52.000  
G32  22547186.640   118486266.24307      1508.867          45.000    22547191.620    92326979.00207      1175.723          45.000  
G08  20440138.240   107413650.23008      -667.082          49.250    20440142.460    83698965.98908      -519.797          53.000  
G21  21050552.700   110621400.49307       866.461          44.250    21050553.820    86198498.35806       675.172          36.250  
R23  21657184.080   115851343.27906     -2597.219          38.500  
R24  19504496.920   104299309.10707       268.176          45.000  
R01  19638591.280   104979515.96907      1384.184          45.750    19638598.660    81650776.17406      1076.582          39.250  
R02  22568676.060   120430780.19507      4393.965          42.250  
> 2023 06 27 11 58 17.5000000  0  9
G02  21829134.100   114712874.34007      1602.059          44.250    21829134.120    89386661.17406      1248.355          38.500  
G27  21724894.180   114165089.29608     -2799.449          49.500    21724899.440    88959831.16508     -2181.398          52.000  
G32  22547157.920   118486115.35007      1508.586          45.000    22547162.780    92326861.42507      1175.512          43.750  
G08  20440150.920   107413716.91108      -666.867          49.250    20440155.140    83699017.95009      -519.629          53.750  
G21  21050536.200   110621313.81407       866.785          44.250    21050537.280    86198430.81805       675.430          32.750  
R23  21657232.640   115851603.01006     -2597.508          37.500  
R24  19504491.900   104299282.26007       268.449          45.000  
R01  19638565.260   104979377.51607      1384.105          45.750    19638572.760    81650668.48806      1076.523          39.250  
R02  22568593.740   120430340.84507      4394.047          42.250  
> 2023 06 27 11 58 17.6000000  0  9
G02  21829103.620   114712714.16707      1601.824          43.750    21829103.640    89386536.36306      1248.176          38.500  
G27  21724947.460   114165369.26308     -2799.734          48.750    21724952.720    88960049.32108     -2181.617          52.000  
G32  22547129.220   118485964.48807      1508.090          43.250    22547134.080    92326743.87707      1175.125          43.750  
G08  20440163.620   107413783.60008      -667.008          49.500    20440167.840    83699069.92009      -519.738          53.750  
G21  21050519.700   110621227.12707       866.719          44.500    21050520.780    86198363.27405       675.379          32.750  
R23  21657280.780   115851862.69006     -2597.691          37.500  
R24  19504486.920   104299255.43707       268.254          46.750  
R01  19638539.380   104979239.13307      1383.828          46.250    19638546.880    81650560.86106      1076.309          39.000  
R02  22568510.880   120429901.35006      4394.793          40.750  
> 2023 06 27 11 58 17.7000000  0  9
G02  21829073.120   114712554.04907      1601.254          43.750    21829073.180    89386411.59606      1247.730          38.500  
G27  21725000.740   114165649.25708     -2800.121          48.750    21725006.000    88960267.49208     -2181.922          51.750  
G32  22547100.520   118485813.68207      1507.965          43.250    22547105.380    92326626.36807      1175.027          43.500  
G08  20440176.320   107413850.33908      -667.414          49.500    20440180.540    83699121.92809      -520.055          53.750  
G21  21050503.220   110621140.50807       866.414          44.500    21050504.300    86198295.78105       675.141          32.750  
R23  21657329.360   115852122.52805     -2597.773          35.000  
R24  19504481.920   104299228.64907       267.840          46.750  
R01  19638513.260   104979100.77907      1383.410          46.250    19638521.000    81650453.25206      1075.980          38.500  
R02  22568428.560   120429462.04806      4392.934          40.750  
> 2023 06 27 11 58 17.8000000  0  9
G02  21829042.640   114712393.88607      1601.508          43.750    21829042.700    89386286.79506      1247.930          36.250  
G27  21725054.020   114165929.21408     -2799.633          48.750    21725059.280    88960485.64008     -2181.539          51.750  
G32  22547071.800   118485662.78607      1509.152          42.500    22547076.660    92326508.79107      1175.949          43.500  
G08  20440189.020   107413917.05708      -667.293          49.750    20440193.240    83699173.91809      -519.961          53.750  
G21  21050486.720   110621053.80607       866.941          44.500    21050487.800    86198228.22406       675.551          35.500  
R23  21657378.380   115852382.30505     -2598.453          35.000  
R24  19504476.980   104299201.83207       268.027          47.250  
R01  19638487.380   104978962.41907      1383.523          46.250    19638495.340    81650345.64106      1076.074          38.750  
R02  22568346.140   120429022.66907      4393.301          43.250  
> 2023 06 27 11 58 17.9000000  0  9
G02  21829012.180   114712233.75207      1601.320          43.250    21829012.240    89386162.01806      1247.781          36.250  
G27  21725107.300   114166209.25708     -2800.363          48.000    21725112.560    88960703.85208     -2182.109          51.750  
G32  22547043.100   118485511.98807      1507.645          42.500    22547047.980    92326391.28907      1174.777          43.500  
G08  20440201.720   107413983.84608      -667.918          49.750    20440205.940    83699225.96309      -520.449          53.750  
G21  21050470.240   110620967.22407       865.836          45.000    21050471.320    86198160.76006       674.687          35.500  
R23  21657426.960   115852642.17006     -2598.559          35.500  
R24  19504471.960   104299175.05507       267.527          47.250  
R01  19638461.420   104978824.12107      1382.883          45.500    19638469.460    81650238.07806      1075.574          37.750  
R02  22568263.800   120428583.28707      4393.219          43.250  
> 2023 06 27 11 58 18.0000000  0  9
G02  21828981.720   114712073.64607      1600.941          43.250    21828981.600    89386037.26206      1247.492          38.000  
G27  21725160.600   114166489.26108     -2800.094          48.000    21725165.840    88960922.03208     -2181.902          52.500  
G32  22547014.400   118485361.17907      1508.070          42.500    22547019.240    92326273.78807      1175.125          44.250  
G08  20440214.440   107414050.62208      -667.785          49.750    20440218.660    83699278.00108      -520.340          53.250  
G21  21050453.740   110620880.61507       866.066          45.000    21050454.800    86198093.27305       674.863          34.500  
R23  21657475.260   115852902.06406     -2599.098          35.500  
R24  19504466.920   104299148.29907       267.602          47.250  
R01  19638435.540   104978685.79407      1383.230          45.500    19638443.580    81650130.49606      1075.848          37.500  
R02  22568181.560   120428143.91307      4393.727          43.250  
> 2023 06 27 11 58 18.1000000  0  9
G02  21828951.260   114711913.54107      1601.035          42.750    21828951.120    89385912.50506      1247.563          38.000  
G27  21725213.880   114166769.28108     -2800.234          48.250    21725219.120    88961140.22808     -2182.012          52.500  
G32  22546985.740   118485210.43007      1507.336          43.000    22546990.560    92326156.33407      1174.551          44.250  
G08  20440227.140   107414117.40608      -667.859          49.750    20440231.360    83699330.04208      -520.398          53.250  
G21  21050437.260   110620793.97007       866.578          44.500    21050438.320    86198025.75705       675.262          34.500  
R23  21657523.840   115853161.90206     -2598.648          35.500  
R24  19504461.920   104299121.52707       267.777          47.000  
R01  19638409.720   104978547.54407      1382.480          44.500    19638417.720    81650022.97106      1075.262          37.000  
R02  22568099.220   120427704.53907      4393.316          42.500  
> 2023 06 27 11 58 18.2000000  0 10
G01  22084982.340   116057366.28706      2593.945          38.250  
G02  21828920.780   114711753.41007      1601.203          42.750    21828920.660    89385787.73106      1247.695          35.750  
G27  21725267.160   114167049.29808     -2800.211          48.250    21725272.400    88961358.41908     -2181.996          51.750  
G32  22546957.060   118485059.73107      1506.914          43.000    22546961.900    92326038.91907      1174.223          43.750  
G08  20440239.860   107414184.16808      -667.727          49.750    20440244.060    83699382.06908      -520.293          52.500  
G21  21050420.780   110620707.34907       866.211          44.500    21050421.840    86197958.26006       674.977          36.500  
R23  21657572.240   115853421.71106     -2597.938          36.250  
R24  19504456.880   104299094.79707       267.301          47.000  
R01  19638383.840   104978409.19507      1383.391          44.500    19638391.840    81649915.37006      1075.969          36.750  
R02  22568016.780   120427265.17607      4393.184          42.500  
> 2023 06 27 11 58 18.3000000  0 10
G01  22084932.900   116057106.91106      2593.621          38.250  
G02  21828890.340   114711593.31007      1600.926          42.250    21828890.200    89385662.97806      1247.480          35.750  
G27  21725320.460   114167329.36808     -2800.844          47.500    21725325.700    88961576.65308     -2182.488          51.750  
G32  22546928.380   118484909.01407      1506.902          42.750    22546933.220    92325921.49107      1174.215          43.750  
G08  20440252.580   107414250.98308      -668.285          49.500    20440256.780    83699434.13408      -520.730          52.500  
G21  21050404.300   110620620.75707       865.746          45.250    21050405.360    86197890.78406       674.613          36.500  
R23  21657620.840   115853681.65106     -2599.520          36.250  
R24  19504451.880   104299068.04707       267.328          46.500  
R01  19638357.720   104978270.96707      1382.250          42.500    19638365.840    81649807.86306      1075.086          36.000  
R02  22567934.460   120426825.84207      4392.910          41.500  
> 2023 06 27 11 58 18.4000000  0 10
G01  22084883.540   116056847.53606      2593.699          38.250  
G02  21828859.860   114711433.18107      1601.359          42.250    21828859.720    89385538.20706      1247.816          35.750  
G27  21725373.760   114167609.45608     -2800.836          47.500    21725379.000    88961794.89908     -2182.406          51.750  
G32  22546899.680   118484758.29507      1507.230          42.750    22546904.540    92325804.06007      1174.469          43.750  
G08  20440265.300   107414317.80908      -668.246          49.500    20440269.500    83699486.20808      -520.699          52.500  
G21  21050387.820   110620534.17707       865.613          45.250    21050388.880    86197823.31906       674.512          36.500  
R23  21657669.300   115853941.54205     -2599.039          35.000  
R24  19504446.740   104299041.35507       266.949          46.500  
R01  19638331.860   104978132.74907      1382.219          42.500    19638339.980    81649700.36306      1075.063          36.000  
R02  22567851.860   120426386.54807      4392.586          41.500  
> 2023 06 27 11 58 18.5000000  0 10
G01  22084834.100   116056588.18406      2593.520          40.000  
G02  21828829.400   114711273.11507      1600.660          42.250    21828829.240    89385413.48205      1247.273          35.250  
G27  21725427.060   114167889.54908     -2801.176          47.500    21725432.300    88962013.15208     -2182.746          51.750  
G32  22546871.000   118484607.59307      1506.785          42.750    22546875.820    92325686.63807      1174.133          44.750  
G08  20440278.020   107414384.65008      -668.473          49.250    20440282.220    83699538.29708      -520.875          52.500  
G21  21050371.340   110620447.58707       865.789          45.250    21050372.520    86197755.84405       674.645          34.750  
R23  21657717.900   115854201.51705     -2599.605          35.000  
R24  19504441.740   104299014.64707       266.953          46.500  
R01  19638305.880   104977994.49607      1382.363          42.500    19638314.120    81649592.83906      1075.176          35.500  
R02  22567769.540   120425947.18207      4392.973          41.500  
> 2023 06 27 11 58 18.6000000  0 10
G01  22084784.780   116056328.95106      2592.203          40.000  
G02  21828798.920   114711113.01807      1600.805          41.750    21828798.760    89385288.73305      1247.383          35.250  
G27  21725480.380   114168169.67208     -2801.375          47.500    21725485.600    88962231.42908     -2182.902          51.750  
G32  22546842.340   118484456.91607      1506.652          42.000    22546847.160    92325569.23907      1174.031          44.750  
G08  20440290.740   107414451.50208      -668.836          49.250    20440294.940    83699590.39108      -521.160          52.500  
G21  21050354.880   110620361.03707       865.168          46.250    21050356.040    86197688.40105       674.160          34.750  
R23  21657766.620   115854461.43505     -2599.270          35.000  
R24  19504436.800   104298987.99007       266.473          45.500  
R01  19638280.040   104977856.33207      1381.816          42.500    19638288.260    81649485.38205      1074.750          34.000  
R02  22567687.220   120425507.91406      4392.570          39.250  
> 2023 06 27 11 58 18.7000000  0 10
G01  22084735.420   116056069.65407      2592.848          41.500  
G02  21828768.460   114710952.97907      1600.133          41.750    21828768.320    89385164.02905      1246.859          34.750  
G27  21725533.680   114168449.79908     -2801.344          47.500    21725538.920    88962449.70808     -2182.879          51.500  
G32  22546813.660   118484306.22507      1506.734          42.000    22546818.480    92325451.82807      1174.094          42.250  
G08  20440303.460   107414518.37308      -668.852          49.250    20440307.680    83699642.49808      -521.172          52.250  
G21  21050338.420   110620274.47107       865.578          46.250    21050339.560    86197620.94206       674.480          36.500  
R23  21657815.240   115854721.45505     -2599.750          33.500  
R24  19504431.820   104298961.30907       266.551          45.500  
R01  19638254.360   104977718.14607      1381.918          42.500    19638262.420    81649377.91005      1074.828          33.000  
R02  22567604.900   120425068.68706      4392.691          39.250  
> 2023 06 27 11 58 18.8000000  0 10
G01  22084686.080   116055810.35207      2593.039          41.500  
G02  21828738.000   114710792.96306      1600.195          40.250    21828737.860    89385039.34305      1246.910          34.750  
G27  21725586.980   114168729.94007     -2801.426          46.750    21725592.220    88962668.00008     -2182.941          51.500  
G32  22546785.000   118484155.60506      1506.090          40.750    22546789.820    92325334.47407      1173.594          42.250  
G08  20440316.200   107414585.26408      -669.035          49.000    20440320.400    83699694.62308      -521.312          52.250  
G21  21050321.940   110620187.95707       865.039          46.750    21050323.100    86197553.52506       674.059          36.500  
R23  21657863.700   115854981.41405     -2599.738          33.500  
R24  19504426.860   104298934.67307       266.297          46.250  
R01  19638228.520   104977580.01406      1381.277          41.000    19638236.500    81649270.47605      1074.336          31.250  
R02  22567523.100   120424629.43606      4391.934          36.500  
> 2023 06 27 11 58 18.9000000  0 10
G01  22084636.740   116055551.05607      2592.969          41.500  
G02  21828707.580   114710632.89206      1600.691          40.250    21828707.400    89384914.61505      1247.297          34.750  
G27  21725640.300   114169010.12307     -2801.734          46.750    21725645.540    88962886.32208     -2183.180          51.250  
G32  22546756.340   118484004.97706      1506.191          40.750    22546761.160    92325217.11207      1173.672          43.000  
G08  20440328.920   107414652.16808      -669.164          49.000    20440333.140    83699746.76108      -521.414          52.250  
G21  21050305.460   110620101.40407       865.449          46.750    21050306.640    86197486.07906       674.379          36.500  
R23  21657912.300   115855241.41305     -2599.699          35.000  
R24  19504421.880   104298908.03507       266.469          46.250  
R01  19638202.760   104977441.92406      1380.852          41.000    19638210.680    81649163.08005      1074.004          32.250  
R02  22567440.780   120424190.10206      4392.422          36.500  
> 2023 06 27 11 58 19.0000000  0 10
G01  22084587.400   116055291.77507      2592.871          43.750  
G02  21828677.100   114710472.80006      1600.996          40.250    21828676.840    89384789.87206      1247.539          37.250  
G27  21725693.620   114169290.31607     -2802.152          46.750    21725698.860    88963104.65408     -2183.508          51.250  
G32  22546727.680   118483854.38606      1505.871          40.750    22546732.480    92325099.77907      1173.434          43.000  
G08  20440341.660   107414719.08908      -669.270          48.750    20440345.880    83699798.90608      -521.496          52.000  
G21  21050288.980   110620014.88007       865.109          46.750    21050290.220    86197418.65105       674.105          35.250  
R23  21657960.920   115855501.45705     -2600.418          35.000  
R24  19504417.000   104298881.42607       266.008          45.750  
R01  19638176.920   104977303.83506      1380.961          41.000    19638184.840    81649055.68305      1074.090          32.750  
R02  22567358.480   120423750.79505      4392.516          35.250  
> 2023 06 27 11 58 19.1000000  0 10
G01  22084538.100   116055032.52807      2592.355          43.750  
G02  21828646.680   114710312.78906      1600.098          39.250    21828646.380    89384665.19206      1246.836          37.250  
G27  21725746.960   114169570.55107     -2802.570          46.750    21725752.200    88963323.01708     -2183.832          51.250  
G32  22546699.040   118483703.78006      1505.977          40.750    22546703.840    92324982.43307      1173.516          43.000  
G08  20440354.400   107414786.04308      -669.707          48.750    20440358.620    83699851.07908      -521.840          52.000  
G21  21050272.520   110619928.38507       865.020          46.750    21050273.760    86197351.24405       674.039          35.250  
R23  21658009.540   115855761.49506     -2601.273          36.250  
R24  19504412.040   104298854.85507       265.789          45.750  
R01  19638151.200   104977165.76106      1380.727          39.500    19638159.020    81648948.29705      1073.906          32.250  
R02  22567276.180   120423311.64505      4391.918          35.250  
> 2023 06 27 11 58 19.2000000  0 10
G01  22084488.760   116054773.27407      2592.629          46.250  
G02  21828616.240   114710152.78106      1600.086          39.250    21828615.940    89384540.51704      1246.828          28.500  
G27  21725800.280   114169850.75807     -2802.031          46.750    21725805.520    88963541.36208     -2183.414          51.500  
G32  22546670.380   118483553.18106      1505.801          40.750    22546675.180    92324865.09407      1173.379          44.000  
G08  20440367.140   107414853.01108      -669.652          48.750    20440371.360    83699903.26108      -521.797          52.250  
G21  21050256.060   110619841.90507       864.816          46.750    21050257.300    86197283.85406       673.879          38.000  
R23  21658059.040   115856021.58006     -2601.320          36.250  
R24  19504406.940   104298828.25907       266.039          45.750  
R01  19638125.380   104977027.71206      1380.801          39.500    19638133.180    81648840.92905      1073.965          30.750  
R02  22567193.960   120422872.40405      4391.727          35.250  
> 2023 06 27 11 58 19.3000000  0 10
G01  22084439.460   116054513.99807      2592.645          46.250  
G02  21828585.800   114709992.80706      1599.762          38.500    21828585.500    89384415.86604      1246.574          28.500  
G27  21725853.600   114170130.98807     -2802.242          46.500    21725858.840    88963759.72108     -2183.578          51.500  
G32  22546641.740   118483402.68706      1504.730          39.500    22546646.540    92324747.83807      1172.543          44.000  
G08  20440379.880   107414919.96808      -669.801          48.750    20440384.100    83699955.43708      -521.910          52.250  
G21  21050239.600   110619755.40508       864.930          47.500    21050240.840    86197216.44406       673.969          38.000  
R23  21658107.640   115856281.61606     -2600.746          36.250  
R24  19504401.960   104298801.68207       265.645          45.250  
R01  19638099.820   104976889.65706      1380.383          40.500    19638107.080    81648733.55505      1073.645          30.000  
R02  22567111.660   120422433.22006      4391.730          36.000  
> 2023 06 27 11 58 19.4000000  0 10
G01  22084390.120   116054254.77207      2592.227          46.000  
G02  21828555.340   114709832.77606      1599.637          38.500    21828555.040    89384291.17004      1246.477          25.500  
G27  21725906.940   114170411.21507     -2802.230          46.500    21725912.160    88963978.07808     -2183.566          51.000  
G32  22546613.100   118483252.16206      1504.965          39.500    22546617.900    92324630.55607      1172.727          44.000  
G08  20440392.640   107414986.94108      -669.824          48.750    20440396.840    83700007.62408      -521.930          51.500  
G21  21050223.160   110619668.91508       864.906          47.500    21050224.380    86197149.04306       673.949          36.250  
R23  21658156.060   115856541.68906     -2600.875          39.250  
R24  19504397.020   104298775.10007       265.711          45.250  
R01  19638074.000   104976751.66106      1380.285          40.500    19638081.280    81648626.22704      1073.566          29.000  
R02  22567029.380   120421993.93906      4392.715          36.000  
> 2023 06 27 11 58 19.5000000  0 11
G01  22084340.820   116053995.53407      2592.328          46.000  
G02  21828524.840   114709672.76806      1600.168          37.750    21828524.440    89384166.49704      1246.898          25.500  
G27  21725960.280   114170691.49207     -2802.805          44.750    21725965.500    88964196.47808     -2184.016          51.000  
G32  22546584.440   118483101.67406      1504.785          40.000    22546589.320    92324513.30507      1172.594          44.000  
G08  20440405.380   107415053.93708      -670.062          48.250    20440409.580    83700059.83308      -522.113          51.500  
G10  22162070.520   116462476.29306     -2511.715          37.250  
G21  21050206.700   110619582.43808       864.742          47.500    21050207.880    86197081.65106       673.812          36.250  
R23  21658204.680   115856801.75506     -2601.195          39.250  
R24  19504392.060   104298748.53407       265.445          45.250  
R01  19638048.340   104976613.64606      1379.703          38.750    19638055.460    81648518.88404      1073.113          29.000  
R02  22566947.080   120421554.73005      4392.141          34.000  
> 2023 06 27 11 58 19.6000000  0 11
G01  22084291.480   116053736.27407      2592.520          46.000  
G02  21828494.400   114709512.80506      1600.070          37.750    21828494.000    89384041.85804      1246.824          25.500  
G27  21726013.600   114170971.73007     -2802.445          44.750    21726018.840    88964414.84508     -2183.734          51.000  
G32  22546555.800   118482951.11206      1505.711          40.000    22546560.680    92324395.99407      1173.316          44.000  
G08  20440418.140   107415120.92808      -669.934          48.250    20440422.340    83700112.03408      -522.016          51.500  
G10  22162118.340   116462727.57606     -2512.727          37.250  
G21  21050190.240   110619495.94208       864.914          47.500    21050191.420    86197014.25006       673.949          36.250  
R23  21658253.140   115857061.85506     -2600.703          39.500  
R24  19504387.080   104298721.99507       265.238          45.250  
R01  19638022.520   104976475.62106      1380.254          38.750    19638029.640    81648411.53304      1073.543          28.500  
R02  22566864.520   120421115.56405      4391.613          34.000  
> 2023 06 27 11 58 19.7000000  0 11
G01  22084242.180   116053477.04507      2592.234          46.750  
G02  21828464.020   114709352.83606      1599.551          37.750    21828463.560    89383917.21406      1246.418          36.000  
G27  21726066.940   114171252.07107     -2803.301          44.750    21726072.180    88964633.29008     -2184.402          51.500  
G32  22546527.160   118482800.66206      1504.508          40.000    22546532.060    92324278.77508      1172.379          48.000  
G08  20440430.880   107415187.95908      -670.457          48.250    20440435.100    83700164.26608      -522.422          51.750  
G10  22162166.920   116462978.71906     -2511.844          37.250  
G21  21050173.800   110619409.48908       864.543          47.500    21050174.960    86196946.87706       673.656          37.500  
R23  21658301.760   115857321.95006     -2601.480          39.500  
R24  19504382.120   104298695.49307       264.891          45.250  
R01  19637996.340   104976337.68906      1379.625          38.750    19638003.840    81648304.25704      1073.055          29.000  
R02  22566782.240   120420676.48405      4390.777          34.000  
> 2023 06 27 11 58 19.8000000  0 11
G01  22084192.860   116053217.79907      2592.414          46.750  
G02  21828433.560   114709192.81506      1599.789          38.250    21828433.120    89383792.53006      1246.605          36.000  
G27  21726120.280   114171532.37207     -2803.148          44.250    21726125.520    88964851.70608     -2184.285          51.500  
G32  22546498.520   118482650.15007      1504.918          42.500    22546503.420    92324161.50108      1172.699          48.000  
G08  20440443.640   107415254.98108      -670.359          48.250    20440447.840    83700216.49108      -522.348          51.750  
G10  22162214.760   116463230.04606     -2512.859          37.750    22162219.980    90750585.96117     -1958.070          46.000  
G21  21050157.340   110619323.02808       864.430          47.500    21050158.500    86196879.49906       673.570          37.500  
R23  21658350.280   115857582.03706     -2601.441          39.500  
R24  19504377.200   104298668.99607       265.004          44.750  
R01  19637970.540   104976199.73906      1379.449          38.500    19637977.980    81648196.96205      1072.910          29.500  
R02  22566699.960   120420237.32906      4391.227          38.500  
> 2023 06 27 11 58 19.9000000  0 11
G01  22084143.580   116052958.59907      2591.891          46.500  
G02  21828403.160   114709032.83106      1600.094          38.250    21828402.680    89383667.87505      1246.844          33.250  
G27  21726173.640   114171812.72207     -2803.664          44.250    21726178.880    88965070.16008     -2184.684          52.500  
G32  22546469.880   118482499.71707      1504.309          42.500    22546474.800    92324044.29308      1172.223          48.000  
G08  20440456.400   107415322.06708      -670.820          48.250    20440460.620    83700268.76808      -522.707          51.500  
G10  22162262.600   116463481.29206     -2512.465          37.750    22162267.780    90750781.72707     -1957.766          46.000  
G21  21050140.900   110619236.61408       864.125          47.500    21050142.060    86196812.16006       673.332          37.500  
R23  21658398.920   115857842.21706     -2602.016          37.250  
R24  19504372.260   104298642.49907       264.656          44.750  
R01  19637944.740   104976061.81506      1379.121          38.500    19637952.160    81648089.68404      1072.652          29.250  
R02  22566617.660   120419798.21306      4391.199          38.500  
> 2023 06 27 11 58 20.0000000  0 11
G01  22084094.260   116052699.38207      2592.129          46.500  
G02  21828372.700   114708872.81206      1600.281          38.000    21828372.420    89383543.19405      1247.000          33.250  
G27  21726226.980   114172093.06007     -2803.410          44.000    21726232.220    88965288.60708     -2184.488          52.500  
G32  22546441.240   118482349.25807      1504.316          43.250    22546446.220    92323927.06408      1172.238          48.000  
G08  20440469.160   107415389.10608      -670.422          48.250    20440473.380    83700321.01008      -522.395          51.500  
G10  22162310.400   116463732.53306     -2512.621          40.000    22162315.600    90750977.49107     -1957.887          45.250  
G21  21050124.460   110619150.16608       864.527          47.750    21050125.700    86196744.79506       673.645          37.500  
R23  21658446.940   115858102.39506     -2602.109          37.250  
R24  19504367.320   104298616.03807       264.949          44.000  
R01  19637918.940   104975923.91806      1379.160          39.500    19637926.380    81647982.42504      1072.684          29.250  
R02  22566535.660   120419359.13806      4391.832          37.750  
> 2023 06 27 11 58 20.1000000  0 11
G01  22084044.880   116052440.12407      2592.496          46.500    22084051.100    90430497.38117      2020.125          46.500  
G02  21828342.260   114708712.81006      1600.156          38.000    21828341.980    89383418.52705      1246.902          33.250  
G27  21726280.320   114172373.39507     -2803.316          44.000    21726285.560    88965507.04808     -2184.414          53.000  
G32  22546412.620   118482198.86907      1503.832          43.250    22546417.600    92323809.88807      1171.859          44.500  
G08  20440481.920   107415456.14908      -670.453          48.250    20440486.140    83700373.25208      -522.418          51.500  
G10  22162358.820   116463983.73706     -2512.395          40.000    22162363.400    90751173.22407     -1957.711          45.250  
G21  21050108.000   110619063.66608       865.086          47.750    21050109.240    86196677.38606       674.082          37.500  
R23  21658495.580   115858362.49006     -2601.270          36.500  
R24  19504362.360   104298589.52507       265.062          44.000  
R01  19637893.440   104975786.01806      1378.449          39.500    19637900.580    81647875.16704      1072.133          28.500  
R02  22566453.380   120418919.99106      4390.746          37.750  
> 2023 06 27 11 58 20.2000000  0 11
G01  22083995.540   116052180.86207      2592.711          44.750    22084001.760    90430295.36408      2020.293          48.750  
G02  21828311.820   114708552.82506      1599.656          38.000    21828311.540    89383293.87205      1246.512          34.500  
G27  21726333.680   114172653.73007     -2803.363          44.000    21726338.920    88965725.49008     -2184.449          53.000  
G32  22546384.020   118482048.50906      1503.254          40.250    22546388.980    92323692.73707      1171.410          44.500  
G08  20440494.680   107415523.20908      -670.703          48.500    20440498.900    83700425.50808      -522.613          52.250  
G10  22162406.660   116464235.06906     -2513.305          40.000    22162409.460    90751369.06907     -1958.418          45.250  
G21  21050091.540   110618977.18608       864.777          47.750    21050092.780    86196610.00006       673.840          37.500  
R23  21658544.160   115858622.65206     -2601.645          36.500  
R24  19504357.360   104298563.02607       265.008          43.500  
R01  19637867.660   104975648.14506      1378.508          39.500    19637874.780    81647767.92604      1072.176          28.500  
R02  22566371.240   120418480.86205      4390.973          35.250  
> 2023 06 27 11 58 20.3000000  0 11
G01  22083946.220   116051921.58907      2592.789          44.750    22083952.420    90430093.33808      2020.355          48.750  
G02  21828281.380   114708392.83606      1600.297          38.500    21828281.080    89383169.21305      1247.012          34.500  
G27  21726387.040   114172934.13107     -2803.945          44.250    21726392.280    88965943.98508     -2184.902          53.000  
G32  22546355.380   118481898.17106      1503.398          40.250    22546360.380    92323575.59807      1171.523          44.500  
G08  20440507.440   107415590.28408      -670.664          48.500    20440511.660    83700477.77408      -522.582          52.250  
G10  22162454.300   116464486.36806     -2513.156          37.500    22162457.280    90751564.89507     -1958.305          45.750  
G21  21050075.100   110618890.72507       864.637          47.250    21050076.320    86196542.62106       673.730          37.500  
R23  21658592.820   115858882.97705     -2602.371          34.250  
R24  19504352.420   104298536.56607       264.473          43.500  
R01  19637841.740   104975510.26706      1378.586          37.750    19637848.780    81647660.68304      1072.230          28.000  
R02  22566288.960   120418041.85105      4389.789          35.250  
> 2023 06 27 11 58 20.4000000  0 11
G01  22083896.860   116051662.29807      2592.773          45.000    22083903.080    90429891.29708      2020.344          50.500  
G02  21828250.920   114708232.81706      1600.207          38.500    21828250.640    89383044.53302      1246.941          13.750  
G27  21726440.380   114173214.49007     -2803.836          44.250    21726445.620    88966162.44608     -2184.848          50.500  
G32  22546326.760   118481747.76406      1503.863          40.250    22546331.760    92323458.41007      1171.883          44.750  
G08  20440520.200   107415657.35208      -670.859          48.500    20440524.420    83700530.03708      -522.734          52.250  
G10  22162502.120   116464737.64306     -2512.754          37.500    22162505.100    90751760.70107     -1957.988          45.750  
G21  21050058.640   110618804.26407       864.516          47.250    21050059.860    86196475.24706       673.637          37.500  
R23  21658641.080   115859143.19505     -2601.906          34.250  
R24  19504347.500   104298510.06207       264.941          43.500  
R01  19637815.940   104975372.38806      1379.301          37.750    19637822.980    81647553.43804      1072.785          28.500  
R02  22566206.600   120417602.75205      4391.043          35.250  
> 2023 06 27 11 58 20.5000000  0 11
G01  22083847.560   116051403.08007      2592.148          45.000    22083854.540    90429689.30308      2019.855          50.500  
G02  21828220.480   114708072.88006      1599.184          41.000    21828220.320    89382919.91702      1246.156          13.750  
G27  21726493.740   114173494.88007     -2804.004          43.250    21726498.980    88966380.93208     -2184.945          50.500  
G32  22546298.140   118481597.40906      1503.910          40.750    22546303.240    92323341.25707      1171.930          44.750  
G08  20440532.980   107415724.47208      -671.164          48.500    20440537.180    83700582.34008      -522.973          52.250  
G10  22162549.140   116464988.93606     -2512.934          38.750    22162552.920    90751956.52407     -1958.129          43.500  
G21  21050042.200   110618717.84008       864.285          47.500    21050043.360    86196407.90106       673.453          37.500  
R23  21658689.740   115859403.40705     -2602.902          34.250  
R24  19504342.560   104298483.59507       264.676          43.500  
R01  19637790.360   104975234.52605      1379.648          34.250    19637797.200    81647446.20804      1073.055          28.750  
R02  22566124.300   120417163.66106      4391.066          36.750  
> 2023 06 27 11 58 20.6000000  0 11
G01  22083798.220   116051143.85207      2592.012          45.000    22083805.200    90429487.30208      2019.750          50.250  
G02  21828190.040   114707912.91706      1599.480          41.000    21828189.880    89382795.28504      1246.387          23.750  
G27  21726547.100   114173775.24207     -2803.668          43.250    21726552.340    88966599.39508     -2184.684          50.500  
G32  22546269.520   118481446.99706      1504.121          40.750    22546274.620    92323224.06507      1172.094          44.250  
G08  20440545.740   107415791.58408      -671.211          48.500    20440549.960    83700634.63308      -523.012          52.250  
G10  22162596.960   116465240.20506     -2512.707          38.750    22162600.740    90752152.32507     -1957.953          43.500  
G21  21050025.760   110618631.40208       864.242          47.500    21050026.920    86196340.54306       673.418          38.250  
R23  21658738.120   115859663.60605     -2601.367          31.750  
R24  19504337.580   104298457.10907       265.016          43.500  
R01  19637764.560   104975096.70405      1378.613          34.250    19637771.420    81647339.00504      1072.250          28.750  
R02  22566041.840   120416724.65206      4390.477          36.750  
> 2023 06 27 11 58 20.7000000  0 11
G01  22083748.880   116050884.58907      2592.602          45.000    22083755.860    90429285.27408      2020.211          50.250  
G02  21828159.620   114707752.97507      1599.527          41.750    21828159.440    89382670.66904      1246.426          23.750  
G27  21726600.460   114174055.62407     -2803.813          42.750    21726605.700    88966817.87508     -2184.797          50.500  
G32  22546240.920   118481296.67706      1503.254          41.000    22546246.020    92323106.93907      1171.418          44.250  
G08  20440558.500   107415858.65408      -670.820          48.250    20440562.720    83700686.89908      -522.707          52.250  
G10  22162644.840   116465491.45106     -2512.332          41.250    22162648.480    90752348.11107     -1957.660          43.500  
G21  21050009.300   110618544.94908       864.625          47.750    21050010.460    86196273.17706       673.719          38.250  
R23  21658786.760   115859923.75005     -2601.809          31.750  
R24  19504332.620   104298430.63607       265.023          42.250  
R01  19637738.780   104974958.83605      1378.418          32.500    19637745.620    81647231.76804      1072.098          28.000  
R02  22565959.560   120416285.61706      4390.152          37.250  
> 2023 06 27 11 58 20.8000000  0 11
G01  22083699.540   116050625.34307      2592.457          45.000    22083706.540    90429083.25708      2020.098          50.250  
G02  21828129.160   114707592.97507      1599.852          41.750    21828129.000    89382546.00604      1246.676          23.750  
G27  21726653.800   114174335.98807     -2803.641          42.750    21726659.040    88967036.34108     -2184.664          50.500  
G32  22546212.320   118481146.35406      1502.930          41.000    22546217.420    92322989.81407      1171.164          44.250  
G08  20440571.280   107415925.78708      -671.574          48.250    20440575.500    83700739.21108      -523.293          52.250  
G10  22162692.680   116465742.83906     -2513.957          41.250    22162696.320    90752544.01207     -1958.926          42.750  
G21  21049992.860   110618458.52208       864.234          47.750    21049994.020    86196205.82906       673.414          38.250  
R23  21658835.540   115860183.96706     -2602.609          36.750  
R24  19504327.660   104298404.15307       264.527          42.250  
R01  19637713.000   104974821.02705      1377.523          32.500    19637719.980    81647124.57904      1071.398          27.750  
R02  22565877.420   120415846.55806      4390.461          37.250  
> 2023 06 27 11 58 20.9000000  0 11
G01  22083650.260   116050366.13807      2592.191          45.000    22083657.200    90428881.27308      2019.891          51.250  
G02  21828098.740   114707433.05607      1599.258          41.750    21828098.560    89382421.40805      1246.215          29.500  
G27  21726707.160   114174616.38607     -2803.875          42.750    21726712.400    88967254.83508     -2184.844          49.500  
G32  22546183.700   118480996.06006      1502.805          41.000    22546188.820    92322872.71007      1171.066          45.500  
G08  20440584.060   107415992.90708      -671.125          48.000    20440588.260    83700791.51208      -522.941          52.250  
G10  22162740.040   116465994.11906     -2512.918          41.250    22162744.140    90752739.82707     -1958.117          42.750  
G21  21049976.400   110618372.06908       864.703          47.750    21049977.560    86196138.46306       673.777          38.750  
R23  21658884.180   115860444.18306     -2602.477          36.750  
R24  19504322.720   104298377.70407       264.316          42.250  
R01  19637687.200   104974683.18105      1378.574          32.500    19637694.200    81647017.35904      1072.215          28.250  
R02  22565795.140   120415407.50406      4390.773          37.250  
> 2023 06 27 11 58 21.0000000  0 11
G01  22083600.940   116050106.90707      2592.070          45.000    22083608.040    90428679.27508      2019.797          51.250  
G02  21828068.300   114707273.05907      1600.406          43.500    21828068.080    89382296.74505      1247.113          29.500  
G27  21726760.500   114174896.76607     -2803.828          42.000    21726765.780    88967473.31008     -2184.809          49.500  
G32  22546155.080   118480845.69707      1503.457          42.250    22546160.220    92322755.55107      1171.570          45.500  
G08  20440596.840   107416060.06308      -671.848          48.000    20440601.040    83700843.84408      -523.508          52.250  
G10  22162787.880   116466245.48307     -2513.688          41.750    22162791.980    90752935.70707     -1958.719          44.000  
G21  21049959.940   110618285.62907       864.316          47.000    21049961.160    86196071.10706       673.480          38.750  
R23  21658932.940   115860704.46006     -2602.680          36.750  
R24  19504317.820   104298351.29907       263.781          41.500  
R01  19637661.420   104974545.39605      1378.027          32.500    19637668.420    81646910.18904      1071.793          28.250  
R02  22565712.960   120414968.50906      4389.770          39.000  
> 2023 06 27 11 58 21.1000000  0 11
G01  22083551.660   116049847.68908      2592.273          47.500    22083558.720    90428477.28909      2019.953          54.250  
G02  21828037.860   114707113.05107      1600.121          43.500    21828037.640    89382172.07005      1246.891          30.000  
G27  21726813.860   114175177.15107     -2803.961          42.000    21726819.140    88967691.79608     -2184.914          49.000  
G32  22546126.480   118480695.44307      1502.801          42.250    22546131.620    92322638.47107      1171.059          43.500  
G08  20440609.620   107416127.22508      -671.547          48.000    20440613.820    83700896.17808      -523.273          52.250  
G10  22162835.460   116466496.80207     -2513.109          41.750    22162839.800    90753131.55507     -1958.266          44.000  
G21  21049943.500   110618199.20207       864.375          47.000    21049944.720    86196003.76206       673.527          38.250  
R23  21658981.580   115860964.66105     -2601.258          34.500  
R24  19504312.860   104298324.82407       265.023          41.500  
R01  19637635.640   104974407.61405      1377.891          32.500    19637642.640    81646803.01704      1071.684          29.000  
R02  22565630.680   120414529.50106      4389.992          39.000  
> 2023 06 27 11 58 21.2000000  0 11
G01  22083502.340   116049588.46608      2592.250          47.500    22083509.380    90428275.30209      2019.934          54.250  
G02  21828007.420   114706953.06907      1599.574          42.750    21828007.200    89382047.41505      1246.465          30.000  
G27  21726867.220   114175457.61507     -2804.770          42.000    21726872.500    88967910.34008     -2185.543          49.000  
G32  22546097.880   118480545.08006      1503.340          41.250    22546103.000    92322521.30607      1171.480          43.500  
G08  20440622.380   107416194.36908      -671.695          48.250    20440626.600    83700948.50208      -523.387          52.250  
G10  22162883.280   116466748.09307     -2513.012          43.500    22162887.520    90753327.38407     -1958.191          46.750  
G21  21049927.060   110618112.76707       864.176          46.750    21049928.280    86195936.41206       673.371          38.250  
R23  21659030.000   115861224.85805     -2601.176          34.500  
R24  19504307.960   104298298.39107       264.254          43.250  
R01  19637609.860   104974269.79405      1378.172          34.000    19637616.860    81646695.81805      1071.902          30.500  
R02  22565548.520   120414090.49007      4389.852          41.750  
> 2023 06 27 11 58 21.3000000  0 11
G01  22083453.040   116049329.25908      2592.188          47.500    22083460.060    90428073.32609      2019.887          54.250  
G02  21827976.940   114706793.07407      1599.910          42.750    21827976.760    89381922.75205      1246.727          30.000  
G27  21726920.600   114175738.06807     -2804.840          42.000    21726925.880    88968128.87508     -2185.598          48.500  
G32  22546069.280   118480394.81806      1502.855          41.250    22546074.420    92322404.22206      1171.102          40.750  
G08  20440635.160   107416261.52008      -671.336          48.250    20440639.380    83701000.82808      -523.105          52.250  
G10  22162931.120   116466999.39407     -2512.793          43.500    22162935.360    90753523.22007     -1958.020          46.750  
G21  21049910.600   110618026.31407       864.680          46.750    21049911.820    86195869.04806       673.766          38.250  
R23  21659078.640   115861485.02005     -2601.520          34.250  
R24  19504303.020   104298271.97207       264.176          43.250  
R01  19637584.280   104974132.08705      1376.961          34.000    19637591.440    81646588.71005      1070.957          31.500  
R02  22565466.260   120413651.47807      4390.445          41.750  
> 2023 06 27 11 58 21.4000000  0 11
G01  22083403.720   116049070.04708      2592.082          48.250    22083410.740    90427871.34608      2019.805          52.500  
G02  21827946.500   114706633.14507      1599.219          42.750    21827946.320    89381798.13605      1246.188          31.250  
G27  21726973.960   114176018.52707     -2804.777          42.000    21726979.240    88968347.41408     -2185.547          48.500  
G32  22546040.680   118480244.57606      1502.410          40.250    22546045.820    92322287.15506      1170.758          40.750  
G08  20440647.940   107416328.69608      -671.789          48.500    20440652.160    83701053.17208      -523.461          52.250  
G10  22162978.960   116467250.70807     -2513.203          43.500    22162983.180    90753719.06707     -1958.340          46.750  
G21  21049894.140   110617939.85007       864.586          46.750    21049895.360    86195801.67406       673.691          39.750  
R23  21659127.620   115861745.29905     -2602.965          34.250  
R24  19504298.060   104298245.59807       263.730          44.750  
R01  19637558.500   104973994.32405      1378.488          34.000    19637565.660    81646481.55805      1072.145          32.250  
R02  22565384.060   120413212.50207      4389.816          42.000  
> 2023 06 27 11 58 21.5000000  0 11
G01  22083354.420   116048810.78708      2592.516          48.250    22083361.940    90427669.33008      2020.141          52.500  
G02  21827916.060   114706473.21607      1599.363          45.500    21827915.540    89381673.51805      1246.289          31.250  
G27  21727027.340   114176298.99907     -2804.941          41.500    21727032.620    88968565.97008     -2185.668          48.500  
G32  22546012.100   118480094.24806      1503.152          40.250    22546017.340    92322170.01606      1171.328          40.750  
G08  20440660.720   107416395.84708      -671.570          48.500    20440664.940    83701105.49808      -523.293          52.250  
G10  22163026.900   116467502.02807     -2513.250          45.500    22163031.000    90753914.91908     -1958.375          48.750  
G21  21049877.700   110617853.43907       864.062          46.500    21049878.900    86195734.34206       673.289          39.750  
R23  21659176.280   115862005.58105     -2602.781          35.000  
R24  19504293.120   104298219.19507       263.969          44.750  
R01  19637532.540   104973856.55205      1377.199          35.000    19637539.880    81646374.39905      1071.145          32.250  
R02  22565301.780   120412773.48507      4390.227          42.000  
> 2023 06 27 11 58 21.6000000  0 11
G01  22083305.080   116048551.55108      2592.434          47.750    22083312.600    90427467.34008      2020.078          49.750  
G02  21827885.620   114706313.16307      1600.551          45.500    21827885.080    89381548.79705      1247.215          34.500  
G27  21727080.700   114176579.38907     -2803.766          41.500    21727085.980    88968784.46008     -2184.633          47.500  
G32  22545983.500   118479943.92306      1503.570          40.250    22545988.740    92322052.87707      1171.652          42.500  
G08  20440673.500   107416462.98508      -671.477          48.750    20440677.720    83701157.81308      -523.219          52.250  
G10  22163074.740   116467753.38407     -2513.746          45.500    22163078.840    90754110.79908     -1958.762          48.750  
G21  21049861.240   110617766.99907       864.402          46.500    21049862.460    86195666.99006       673.551          40.000  
R23  21659225.080   115862265.82905     -2602.262          35.000  
R24  19504288.280   104298192.76607       264.250          44.750  
R01  19637506.780   104973718.80705      1377.492          35.000    19637514.120    81646267.26005      1071.371          31.500  
R02  22565219.660   120412334.43207      4390.504          42.000  
> 2023 06 27 11 58 21.7000000  0 11
G01  22083255.800   116048292.29908      2592.676          47.750    22083263.280    90427265.33108      2020.266          49.750  
G02  21827855.160   114706153.15507      1600.188          46.250    21827854.640    89381424.11205      1246.930          34.500  
G27  21727134.040   114176859.77706     -2803.910          39.750    21727139.320    88969002.95008     -2184.863          47.500  
G32  22545954.900   118479793.61006      1503.117          39.750    22545960.140    92321935.75107      1171.301          42.500  
G08  20440686.280   107416530.15508      -671.711          48.750    20440690.500    83701210.15408      -523.402          52.250  
G10  22163122.340   116468004.73507     -2513.512          46.750    22163126.660    90754306.67407     -1958.582          47.250  
G21  21049844.800   110617680.54807       864.512          47.250    21049846.000    86195599.62606       673.637          40.000  
R23  21659273.740   115862526.06805     -2602.426          35.000  
R24  19504283.340   104298166.33307       264.246          45.250  
R01  19637481.040   104973581.11105      1377.070          35.250    19637488.360    81646160.16205      1071.043          31.500  
R02  22565137.400   120411895.45007      4390.004          42.750  
> 2023 06 27 11 58 21.8000000  0 11
G01  22083206.460   116048033.04408      2592.512          48.250    22083213.940    90427063.32508      2020.141          51.000  
G02  21827824.720   114705993.19207      1599.512          46.250    21827824.200    89381299.46305      1246.402          33.250  
G27  21727187.400   114177140.18806     -2804.332          39.750    21727192.680    88969221.45607     -2185.195          45.500  
G32  22545926.320   118479643.40606      1502.051          39.750    22545931.560    92321818.71007      1170.469          43.750  
G08  20440699.080   107416597.32208      -671.926          48.750    20440703.280    83701262.49408      -523.570          51.750  
G10  22163170.160   116468256.09907     -2513.707          46.750    22163174.500    90754502.55607     -1958.734          47.250  
G21  21049828.320   110617594.09507       864.613          47.250    21049829.560    86195532.26406       673.719          39.750  
R23  21659322.340   115862786.19205     -2601.133          34.250  
R24  19504278.420   104298139.94907       263.598          45.250  
R01  19637455.280   104973443.33905      1377.625          35.250    19637462.700    81646053.00505      1071.477          30.750  
R02  22565055.060   120411456.44107      4390.051          42.750  
> 2023 06 27 11 58 21.9000000  0 11
G01  22083157.180   116047773.84508      2591.977          48.250    22083164.620    90426861.35808      2019.723          51.000  
G02  21827794.280   114705833.22108      1599.547          47.500    21827793.760    89381174.80605      1246.430          33.250  
G27  21727240.800   114177420.74406     -2805.832          39.500    21727246.080    88969440.07707     -2186.363          45.500  
G32  22545897.720   118479493.11706      1502.684          40.000    22545902.960    92321701.60207      1170.961          43.750  
G08  20440711.860   107416664.54208      -672.152          48.750    20440716.060    83701314.87108      -523.746          51.750  
G10  22163217.960   116468507.47907     -2513.824          47.250    22163222.340    90754698.45507     -1958.824          47.250  
G21  21049811.880   110617507.67607       864.219          47.000    21049813.100    86195464.92906       673.410          39.750  
R23  21659371.000   115863046.54905     -2602.328          34.250  
R24  19504273.480   104298113.56507       263.855          45.250  
R01  19637429.300   104973305.60806      1377.168          37.000    19637436.920    81645945.88205      1071.121          30.000  
R02  22564972.780   120411017.46707      4389.523          42.500  
> 2023 06 27 11 58 22.0000000  0 11
G01  22083107.840   116047514.61408      2592.121          48.250    22083114.760    90426659.37008      2019.836          51.000  
G02  21827763.840   114705673.23108      1599.914          47.500    21827763.400    89381050.13305      1246.703          33.250  
G27  21727294.160   114177701.14506     -2804.402          39.500    21727299.440    88969658.57707     -2185.242          45.500  
G32  22545869.140   118479342.88306      1502.211          40.000    22545874.340    92321584.54107      1170.598          43.750  
G08  20440724.640   107416731.69408      -671.590          48.750    20440728.840    83701367.19908      -523.309          51.750  
G10  22163265.780   116468758.82707     -2513.266          47.250    22163270.160    90754894.32307     -1958.391          46.500  
G21  21049795.440   110617421.24407       864.355          47.000    21049796.740    86195397.58106       673.523          39.750  
R23  21659419.760   115863306.75705     -2601.445          33.750  
R24  19504268.580   104298087.14507       264.062          45.250  
R01  19637403.560   104973167.97806      1376.672          37.000    19637411.180    81645838.83704      1070.738          27.750  
R02  22564890.480   120410578.41907      4390.176          42.500  
> 2023 06 27 11 58 22.1000000  0 11
G01  22083058.540   116047255.36508      2592.414          47.750    22083065.420    90426457.36608      2020.063          50.750  
G02  21827733.380   114705513.25808      1599.813          47.500    21827732.940    89380925.46305      1246.621          34.500  
G27  21727347.540   114177981.61106     -2804.895          39.500    21727352.820    88969877.13107     -2185.691          46.000  
G32  22545840.540   118479192.60006      1502.805          40.000    22545845.740    92321467.44507      1171.059          42.750  
G08  20440737.420   107416798.84508      -671.434          49.250    20440741.620    83701419.52408      -523.187          52.500  
G10  22163313.680   116469010.15507     -2513.441          47.250    22163318.000    90755090.18107     -1958.527          46.500  
G21  21049778.980   110617334.79307       864.543          47.000    21049780.280    86195330.22107       673.668          42.000  
R23  21659468.400   115863566.97205     -2601.961          33.750  
R24  19504263.640   104298060.76907       263.961          45.250  
R01  19637377.720   104973030.23106      1377.727          37.000    19637385.420    81645731.70204      1071.559          27.750  
R02  22564808.220   120410139.40007      4390.637          42.500  
> 2023 06 27 11 58 22.2000000  0 11
G01  22083009.200   116046996.10208      2592.727          47.750    22083016.080    90426255.34908      2020.305          50.750  
G02  21827702.940   114705353.25508      1600.000          48.000    21827702.500    89380800.77405      1246.770          34.500  
G27  21727400.900   114178262.01706     -2804.207          39.000    21727406.180    88970095.63707     -2184.961          46.000  
G32  22545811.940   118479042.33506      1502.762          40.750    22545817.160    92321350.36007      1171.027          42.750  
G08  20440750.200   107416866.01508      -671.664          49.250    20440754.400    83701471.86508      -523.367          52.500  
G10  22163361.500   116469261.52407     -2513.590          46.000    22163365.680    90755286.06807     -1958.641          46.750  
G21  21049762.540   110617248.38707       864.148          47.000    21049763.840    86195262.89607       673.363          42.000  
R23  21659517.200   115863827.17905     -2603.109          33.750  
R24  19504258.700   104298034.37707       264.281          45.000  
R01  19637351.960   104972892.50505      1378.059          34.500    19637359.640    81645624.58404      1071.816          26.000  
R02  22564725.940   120409700.33006      4391.086          41.000  
> 2023 06 27 11 58 22.3000000  0 11
G01  22082959.880   116046736.87708      2592.281          48.000    22082966.760    90426053.36308      2019.961          50.250  
G02  21827672.500   114705193.26308      1599.855          48.000    21827672.040    89380676.09405      1246.656          34.750  
G27  21727454.260   114178542.42306     -2803.840          39.000    21727459.540    88970314.14407     -2184.801          41.750  
G32  22545783.340   118478892.10606      1502.254          40.750    22545788.580    92321233.30707      1170.629          43.500  
G08  20440762.980   107416933.18508      -671.582          49.250    20440767.180    83701524.20508      -523.305          52.250  
G10  22163409.360   116469512.90107     -2513.613          46.000    22163413.520    90755481.95407     -1958.660          46.750  
G21  21049746.100   110617161.96607       864.027          47.000    21049747.400    86195195.56307       673.270          42.000  
R23  21659565.840   115864087.37605     -2603.418          33.000  
R24  19504253.760   104298007.95507       264.289          45.000  
R01  19637325.700   104972754.84805      1376.156          34.500    19637334.020    81645517.51804      1070.605          25.000  
R02  22564643.660   120409261.31306      4390.309          41.000  
> 2023 06 27 11 58 22.4000000  0 11
G01  22082910.560   116046477.69008      2591.637          48.000    22082917.440    90425851.40608      2019.457          50.250  
G02  21827642.060   114705033.32808      1599.434          48.750    21827641.600    89380551.45605      1246.328          34.750  
G27  21727507.620   114178822.82206     -2804.188          39.250    21727512.900    88970532.64607     -2185.090          41.750  
G32  22545754.720   118478741.71806      1504.004          40.500    22545759.960    92321116.12907      1171.992          43.500  
G08  20440775.760   107417000.37308      -671.949          49.000    20440779.960    83701576.55908      -523.590          52.250  
G10  22163457.200   116469764.21507     -2513.160          44.750    22163461.360    90755677.79607     -1958.305          43.500  
G21  21049729.660   110617075.57307       863.859          46.500    21049730.960    86195128.25007       673.137          42.000  
R23  21659614.440   115864347.68505     -2602.629          33.000  
R24  19504248.860   104297981.49307       264.445          43.250  
R01  19637299.940   104972617.12005      1377.043          33.250    19637308.240    81645410.40204      1071.031          23.750  
R02  22564561.300   120408822.33406      4389.727          40.250  
> 2023 06 27 11 58 22.5000000  0 11
G01  22082861.260   116046218.52808      2591.430          48.000    22082867.800    90425649.47208      2019.297          50.250  
G02  21827611.640   114704873.39108      1599.230          48.750    21827611.140    89380426.82105      1246.156          34.750  
G27  21727560.980   114179103.20106     -2804.027          39.250    21727566.260    88970751.13006     -2184.941          39.500  
G32  22545726.120   118478591.39706      1503.387          40.500    22545731.220    92320999.00306      1171.516          40.250  
G08  20440788.560   107417067.55908      -671.891          49.000    20440792.760    83701628.91008      -523.543          52.250  
G10  22163504.940   116470015.49007     -2512.477          44.750    22163509.180    90755873.60907     -1957.773          43.500  
G21  21049713.200   110616989.17807       864.086          46.500    21049714.520    86195060.93307       673.316          42.000  
R23  21659663.080   115864607.91305     -2601.520          31.000  
R24  19504243.920   104297955.08507       264.461          43.250  
R01  19637274.200   104972479.43105      1377.090          33.250    19637282.500    81645303.31503      1071.066          23.000  
R02  22564479.020   120408383.30706      4390.449          40.250  
> 2023 06 27 11 58 22.6000000  0 11
G01  22082811.940   116045959.40208      2591.449          48.000    22082818.480    90425447.55908      2019.313          51.750  
G02  21827581.200   114704713.44108      1599.320          48.750    21827580.700    89380302.17905      1246.227          33.750  
G27  21727614.360   114179383.64706     -2804.199          39.250    21727619.620    88970969.66306     -2184.945          39.500  
G32  22545697.500   118478441.03307      1503.730          44.000    22545702.600    92320881.84106      1171.785          40.250  
G08  20440801.340   107417134.73708      -671.848          48.250    20440805.540    83701681.25808      -523.512          50.250  
G10  22163552.760   116470266.74907     -2512.629          44.750    22163556.980    90756069.40907     -1957.895          43.500  
G21  21049696.760   110616902.74307       864.055          46.500    21049698.080    86194993.58707       673.293          43.000  
R23  21659711.620   115864868.22005     -2603.191          31.000  
R24  19504239.020   104297928.63406       264.055          40.750  
R01  19637248.420   104972341.66805      1377.707          33.250    19637256.720    81645196.17203      1071.547          23.000  
R02  22564396.560   120407944.22707      4390.668          42.500  
> 2023 06 27 11 58 22.7000000  0 10
G01  22082762.640   116045700.27608      2591.270          48.000    22082769.180    90425245.64708      2019.172          51.750  
G02  21827550.780   114704553.54608      1598.809          47.750    21827550.260    89380177.57905      1245.828          33.750  
G27  21727667.700   114179664.01306     -2803.754          40.000    21727672.980    88971188.13706     -2184.727          39.500  
G32  22545668.920   118478290.66507      1503.910          44.000    22545673.980    92320764.68206      1171.926          40.250  
G08  20440814.120   107417201.95908      -672.172          48.250    20440818.320    83701733.63708      -523.762          50.250  
G10  22163600.840   116470518.05507     -2513.094          44.500    22163605.100    90756265.24106     -1958.254          36.750  
G21  21049680.320   110616816.38408       863.637          47.750    21049681.640    86194926.29707       672.969          43.000  
R24  19504234.080   104297902.23306       264.250          40.750  
R01  19637222.700   104972203.96606      1377.328          35.500    19637230.960    81645089.07403      1071.250          22.500  
R02  22564314.280   120407505.15107      4390.758          42.500  
> 2023 06 27 11 58 22.8000000  0 10
G01  22082713.340   116045441.15607      2591.336          46.500    22082719.880    90425043.74108      2019.223          53.000  
G02  21827520.340   114704393.63008      1599.160          47.750    21827519.840    89380052.96305      1246.102          30.500  
G27  21727721.080   114179944.43006     -2804.090          40.000    21727726.340    88971406.64706     -2184.988          41.000  
G32  22545640.300   118478140.27407      1503.914          44.000    22545645.380    92320647.50006      1171.930          37.000  
G08  20440826.900   107417269.13707      -671.910          46.750    20440831.120    83701785.98507      -523.559          47.000  
G10  22163648.640   116470769.25907     -2512.020          44.500    22163652.900    90756460.99606     -1957.418          36.750  
G21  21049663.880   110616729.97608       864.078          47.750    21049665.200    86194858.97107       673.312          41.750  
R24  19504229.120   104297875.77706       264.562          40.750  
R01  19637196.940   104972066.20806      1377.492          35.500    19637205.040    81644981.93303      1071.387          22.750  
R02  22564232.040   120407066.18307      4389.773          42.500  
> 2023 06 27 11 58 22.9000000  0 10
G01  22082664.000   116045181.99607      2591.418          46.500    22082670.560    90424841.80308      2019.285          53.000  
G02  21827489.900   114704233.71907      1599.371          46.500    21827489.400    89379928.34905      1246.266          30.500  
G27  21727774.420   114180224.81007     -2803.805          42.250    21727779.700    88971625.13106     -2184.766          41.000  
G32  22545611.680   118477989.88507      1504.078          43.250    22545616.760    92320530.32406      1172.055          37.000  
G08  20440839.700   107417336.32507      -671.965          46.750    20440843.900    83701838.33807      -523.602          47.000  
G10  22163696.380   116471020.48407     -2511.879          42.750    22163700.720    90756656.76206     -1957.309          36.500  
G21  21049647.440   110616643.57007       864.148          47.000    21049648.760    86194791.64807       673.367          41.750  
R24  19504224.180   104297849.33607       264.457          41.750  
R01  19637171.260   104971928.50006      1377.512          37.750    19637179.280    81644874.83603      1071.402          22.750  
R02  22564149.760   120406627.13407      4390.293          43.750  
> 2023 06 27 11 58 23.0000000  0 10
G01  22082614.700   116044922.90707      2590.871          45.250    22082621.360    90424639.91308      2018.859          51.750  
G02  21827459.480   114704073.80907      1599.133          46.500    21827458.820    89379803.74304      1246.086          28.000  
G27  21727827.780   114180505.19507     -2803.855          42.250    21727833.020    88971843.61107     -2184.816          45.000  
G32  22545583.040   118477839.45207      1504.461          43.250    22545588.060    92320413.12206      1172.379          40.500  
G08  20440852.500   107417403.54707      -672.125          46.750    20440856.680    83701890.71708      -523.727          47.500  
G10  22163744.200   116471271.69107     -2512.023          42.750    22163748.520    90756852.51706     -1957.422          36.500  
G21  21049630.980   110616557.18007       863.824          47.000    21049632.360    86194724.33106       673.113          40.750  
R24  19504219.400   104297822.89307       264.477          41.750  
R01  19637145.480   104971790.77406      1377.027          37.750    19637153.520    81644767.72204      1071.023          25.750  
R02  22564067.420   120406188.09407      4390.434          43.750  
> 2023 06 27 11 58 23.1000000  0 10
G01  22082565.400   116044663.79907      2591.086          45.250    22082572.060    90424438.00908      2019.027          51.750  
G02  21827429.060   114703913.95107      1598.582          43.500    21827428.400    89379679.18104      1245.656          28.000  
G27  21727881.140   114180785.56407     -2803.676          45.000    21727886.360    88972062.08007     -2184.676          45.000  
G32  22545554.400   118477689.00506      1504.602          41.250    22545559.440    92320295.91606      1172.488          40.500  
G08  20440865.280   107417470.72807      -671.891          46.500    20440869.460    83701943.06708      -523.543          47.500  
G10  22163792.100   116471522.84706     -2511.563          41.000    22163796.320    90757048.23406     -1957.063          36.500  
G21  21049614.540   110616470.77407       864.121          47.250    21049615.920    86194657.00206       673.344          40.750  
R24  19504214.440   104297796.39907       265.020          43.750  
R01  19637119.820   104971653.01306      1377.695          40.250    19637127.760    81644660.58304      1071.543          27.750  
R02  22563985.140   120405749.04807      4390.617          43.500  
> 2023 06 27 11 58 23.2000000  0 10
G01  22082516.100   116044404.67907      2591.527          45.250    22082522.740    90424236.09308      2019.371          51.750  
G02  21827398.620   114703754.01407      1599.375          43.500    21827397.960    89379554.56004      1246.273          28.000  
G27  21727934.480   114181065.93307     -2803.516          45.000    21727939.720    88972280.54807     -2184.551          45.000  
G32  22545525.780   118477538.56206      1504.242          41.250    22545530.800    92320178.71106      1172.207          40.500  
G08  20440878.060   107417537.92707      -671.785          46.500    20440882.260    83701995.43008      -523.461          47.500  
G10  22163839.880   116471773.97006     -2511.371          41.000    22163843.580    90757243.90107     -1956.914          45.500  
G21  21049598.100   110616384.37807       864.020          47.250    21049599.480    86194589.68106       673.266          40.750  
R24  19504209.480   104297769.96707       264.672          43.750  
R01  19637094.060   104971515.30106      1377.188          40.250    19637101.980    81644553.47705      1071.148          30.750  
R02  22563902.880   120405309.98407      4390.500          43.500  
> 2023 06 27 11 58 23.3000000  0 10
G01  22082466.820   116044145.53407      2591.398          45.250    22082473.420    90424034.16008      2019.273          50.250  
G02  21827368.180   114703594.06907      1599.547          43.500    21827367.540    89379429.93205      1246.406          31.750  
G27  21727987.840   114181346.30007     -2803.602          45.000    21727993.080    88972499.01108     -2184.617          51.500  
G32  22545497.120   118477388.09706      1504.797          41.250    22545502.180    92320061.48706      1172.641          37.750  
G08  20440890.840   107417605.13607      -671.914          46.250    20440895.040    83702047.80108      -523.562          48.500  
G10  22163887.600   116472025.23606     -2512.949          41.000    22163891.400    90757439.67107     -1958.141          45.500  
G21  21049581.660   110616297.99607       864.062          47.250    21049583.040    86194522.37006       673.301          39.000  
R24  19504204.540   104297743.51607       264.340          43.750  
R01  19637068.380   104971377.57206      1377.195          40.250    19637076.460    81644446.36105      1071.160          32.750  
R02  22563820.600   120404870.91607      4390.305          43.500  
> 2023 06 27 11 58 23.4000000  0 10
G01  22082417.500   116043886.41407      2591.328          45.250    22082424.120    90423832.24608      2019.215          50.250  
G02  21827337.760   114703434.20006      1598.906          41.250    21827337.100    89379305.36305      1245.910          31.750  
G27  21728041.200   114181626.69308     -2803.824          47.500    21728046.420    88972717.49708     -2184.836          51.500  
G32  22545468.480   118477237.62206      1504.625          38.250    22545473.560    92319944.26006      1172.504          37.750  
G08  20440903.640   107417672.34007      -672.129          46.250    20440907.840    83702100.17008      -523.730          48.500  
G10  22163935.420   116472276.48206     -2512.512          40.500    22163939.200    90757635.42707     -1957.660          46.750  
G21  21049565.200   110616211.60307       863.898          46.500    21049566.600    86194455.05106       673.172          39.000  
R24  19504199.660   104297717.09907       264.219          45.250  
R01  19637042.620   104971239.88607      1376.941          43.000    19637050.700    81644339.27405      1070.961          34.000  
R02  22563738.180   120404431.84907      4390.711          41.750  
> 2023 06 27 11 58 23.5000000  0 10
G01  22082368.220   116043627.28507      2591.199          46.250    22082374.920    90423630.31808      2019.117          48.250  
G02  21827307.360   114703274.28106      1599.180          41.250    21827306.580    89379180.75105      1246.117          34.000  
G27  21728094.540   114181907.08108     -2803.785          47.500    21728099.780    88972935.97709     -2184.766          54.000  
G32  22545439.880   118477087.18806      1504.488          38.250  
G08  20440916.440   107417739.57007      -672.328          46.250    20440920.620    83702152.55908      -523.883          51.500  
G10  22163983.000   116472527.63906     -2511.598          40.500    22163986.980    90757831.11507     -1957.215          46.750  
G21  21049548.760   110616125.18107       864.082          46.500    21049550.100    86194387.70906       673.312          36.250  
R24  19504194.700   104297690.64807       264.531          45.250  
R01  19637016.860   104971102.15707      1376.859          43.000    19637024.940    81644232.15405      1070.898          34.750  
R02  22563655.920   120403992.78207      4390.910          41.750  
> 2023 06 27 11 58 23.6000000  0 10
G01  22082318.920   116043368.19107      2591.070          46.250    22082325.620    90423428.40808      2019.016          48.250  
G02  21827276.940   114703114.40506      1598.977          39.250    21827276.160    89379056.17005      1245.961          34.000  
G27  21728147.900   114182187.45808     -2803.793          48.750    21728153.140    88973154.44709     -2184.770          54.000  
G32  22545411.240   118476936.73906      1503.965          38.500  
G08  20440929.220   107417806.78507      -672.105          47.000    20440933.420    83702204.93408      -523.711          51.500  
G10  22164030.800   116472778.85107     -2511.949          42.500    22164034.780    90758026.84408     -1957.363          49.500  
G21  21049532.320   110616038.83107       863.762          44.750    21049533.660    86194320.42106       673.062          36.250  
R24  19504189.700   104297664.20807       264.457          46.500  
R01  19636991.100   104970964.46907      1376.875          43.250    19636999.180    81644125.06705      1070.910          35.250  
R02  22563573.680   120403553.77606      4389.836          40.500  
> 2023 06 27 11 58 23.7000000  0 10
G01  22082269.640   116043109.07107      2591.195          46.250    22082276.300    90423226.48108      2019.113          48.250  
G02  21827246.540   114702954.49706      1598.965          39.250    21827245.740    89378931.56605      1245.949          34.000  
G27  21728201.260   114182467.84008     -2803.727          48.750    21728206.480    88973372.92009     -2184.719          54.000  
G32  22545382.660   118476786.43206      1503.188          38.500  
G08  20440942.020   107417873.99407      -672.195          47.000    20440946.200    83702257.30708      -523.781          51.500  
G10  22164078.580   116473030.10407     -2512.457          42.500    22164082.780    90758222.62208     -1957.758          49.500  
G21  21049515.880   110615952.43307       863.441          44.750    21049517.220    86194253.09606       672.812          36.250  
R24  19504184.760   104297637.78307       264.242          46.500  
R01  19636965.340   104970826.78607      1376.715          43.250    19636973.420    81644017.98405      1070.785          35.250  
R02  22563491.400   120403114.71206      4390.113          40.500  
> 2023 06 27 11 58 23.8000000  0 10
G01  22082220.340   116042849.96907      2590.961          47.000    22082227.000    90423024.56907      2018.930          46.250  
G02  21827216.120   114702794.60706      1598.621          39.250    21827215.300    89378806.97706      1245.684          39.000  
G27  21728254.620   114182748.24908     -2804.125          48.750    21728259.840    88973591.41909     -2185.027          54.000  
G32  22545354.040   118476636.05906      1503.492          38.500  
G08  20440954.800   107417941.25308      -672.566          47.500    20440959.000    83702309.71708      -524.070          52.250  
G10  22164126.400   116473281.36907     -2512.789          42.500    22164130.600    90758418.41608     -1958.016          49.500  
G21  21049499.460   110615866.09007       863.613          44.750    21049500.800    86194185.81405       672.945          35.250  
R24  19504179.840   104297611.36407       264.180          47.250  
R01  19636939.580   104970689.07807      1377.086          43.250    19636947.660    81643910.88106      1071.074          35.500  
R02  22563409.000   120402675.75406      4389.875          38.250  
> 2023 06 27 11 58 23.9000000  0 10
G01  22082171.040   116042590.86907      2591.000          47.000    22082177.680    90422822.65707      2018.961          46.250  
G02  21827185.700   114702634.71207      1598.949          42.500    21827184.880    89378682.37906      1245.938          39.000  
G27  21728307.980   114183028.63908     -2803.953          48.500    21728313.200    88973809.90109     -2184.895          54.000  
G32  22545325.440   118476485.64406      1503.738          38.500  
G08  20440967.600   107418008.48908      -672.422          47.500    20440971.800    83702362.11008      -523.957          52.250  
G10  22164174.220   116473532.57007     -2512.199          42.000    22164178.400    90758614.16208     -1957.559          48.000  
G21  21049483.020   110615779.72607       863.422          43.250    21049484.360    86194118.51505       672.797          35.250  
R24  19504174.900   104297584.94807       264.152          47.250  
R01  19636913.860   104970551.43007      1376.598          42.000    19636921.900    81643803.82106      1070.695          35.500  
R02  22563326.700   120402236.64406      4390.566          38.250  
> 2023 06 27 11 58 24.0000000  0 10
G01  22082121.740   116042331.78807      2590.852          47.250    22082127.560    90422620.76107      2018.844          42.750  
G02  21827155.280   114702474.83307      1598.863          42.500    21827154.680    89378557.79806      1245.871          36.750  
G27  21728361.340   114183309.05108     -2804.035          48.500    21728366.580    88974028.39709     -2184.965          54.250  
G32  22545296.860   118476335.49006      1501.652          38.500  
G08  20440980.380   107418075.73707      -672.402          47.000    20440984.600    83702414.51108      -523.945          52.000  
G10  22164222.060   116473783.91507     -2512.906          42.000    22164226.240    90758810.01708     -1958.109          48.000  
G21  21049466.580   110615693.37007       863.676          43.250    21049467.980    86194051.22306       672.988          37.750  
R24  19504169.960   104297558.54207       264.125          47.250  
R01  19636888.120   104970413.78407      1376.629          42.000    19636896.160    81643696.76506      1070.719          35.500  
R02  22563244.380   120401797.67606      4390.082          38.250  
> 2023 06 27 11 58 24.1000000  0 10
G01  22082072.480   116042072.72007      2590.652          47.250    22082078.260    90422418.87607      2018.691          42.750  
G02  21827124.900   114702314.95607      1598.656          44.500    21827124.260    89378433.21906      1245.711          36.750  
G27  21728414.680   114183589.42508     -2803.793          48.750    21728419.920    88974246.86609     -2184.777          54.250  
G32  22545268.280   118476185.10906      1503.168          35.500    22545273.520    92319125.28715      1171.301          33.500  
G08  20440993.200   107418142.99407      -672.543          47.000    20440997.400    83702466.91708      -524.055          52.000  
G10  22164269.700   116474035.18006     -2512.832          40.500    22164274.060    90759005.81207     -1958.051          46.250  
G21  21049450.140   110615607.01407       863.430          42.500    21049451.540    86193983.92806       672.797          37.750  
R24  19504165.020   104297532.13108       263.957          47.500  
R01  19636862.180   104970276.02906      1377.383          40.250    19636870.380    81643589.62205      1071.305          35.250  
R02  22563162.120   120401358.67005      4390.145          33.000  
> 2023 06 27 11 58 24.2000000  0 10
G01  22082023.180   116041813.64107      2590.895          46.000    22082028.940    90422216.98407      2018.879          45.000  
G02  21827094.460   114702155.02707      1599.324          44.500    21827093.820    89378308.60105      1246.230          35.000  
G27  21728468.040   114183869.75808     -2803.266          48.750    21728473.260    88974465.30309     -2184.340          53.750  
G32  22545239.640   118476034.60206      1506.223          35.500    22545244.860    92319008.00305      1173.680          34.500  
G08  20441005.980   107418210.19507      -672.125          47.000    20441010.180    83702519.28408      -523.730          53.250  
G10  22164317.480   116474286.35706     -2511.363          40.500    22164322.080    90759201.53907     -1956.902          46.250  
G21  21049433.700   110615520.60807       864.355          42.500    21049435.100    86193916.59706       673.520          36.750  
R24  19504160.100   104297505.70908       264.492          47.500  
R01  19636836.400   104970138.28106      1377.953          40.250    19636844.620    81643482.48305      1071.750          34.750  
R02  22563080.020   120400919.73605      4389.832          33.000  
> 2023 06 27 11 58 24.3000000  0 10
G01  22081973.840   116041554.55207      2590.820          46.000    22081979.640    90422015.08407      2018.820          45.000  
G02  21827064.060   114701995.16607      1598.617          43.250    21827063.400    89378184.03605      1245.680          35.000  
G27  21728521.380   114184150.12208     -2803.559          47.750    21728526.620    88974683.76409     -2184.594          53.750  
G32  22545210.960   118475884.10605      1506.344          33.250    22545216.220    92318890.72705      1173.773          34.500  
G08  20441018.780   107418277.46207      -672.559          47.250    20441022.980    83702571.70008      -524.066          53.250  
G10  22164365.340   116474537.54006     -2511.879          36.000    22164369.880    90759397.27607     -1957.305          46.250  
G21  21049417.280   110615434.26007       863.633          43.750    21049418.660    86193849.30606       672.957          36.750  
R24  19504155.160   104297479.30607       264.039          47.250  
R01  19636810.740   104970000.60306      1377.547          38.250    19636818.780    81643375.40205      1071.434          34.500  
R02  22562997.720   120400480.59705      4391.047          32.250  
> 2023 06 27 11 58 24.4000000  0 10
G01  22081924.520   116041295.45007      2591.082          46.000    22081930.340    90421813.17007      2019.023          45.000  
G02  21827033.620   114701835.24007      1599.238          43.250    21827032.960    89378059.41605      1246.164          35.000  
G27  21728574.720   114184430.43008     -2803.059          47.750    21728579.960    88974902.18309     -2184.258          53.750  
G32  22545182.300   118475733.56705      1505.273          33.250    22545187.580    92318773.41405      1172.941          34.500  
G08  20441031.580   107418344.68007      -672.219          47.250    20441035.780    83702624.07708      -523.805          53.250  
G10  22164413.160   116474788.84606     -2512.406          36.000    22164417.700    90759593.10507     -1957.715          46.500  
G21  21049400.840   110615347.88807       863.773          43.750    21049402.220    86193782.00206       673.066          36.750  
R24  19504150.220   104297452.87907       264.062          47.250  
R01  19636785.000   104969862.93106      1376.680          38.250    19636793.020    81643268.32305      1070.758          34.250  
R02  22562915.440   120400041.53805      4390.742          32.250  
> 2023 06 27 11 58 24.5000000  0  9
G01  22081875.200   116041036.34807      2590.910          44.250    22081881.160    90421611.27008      2018.891          47.500  
G02  21827003.180   114701675.33707      1599.109          43.250    21827002.440    89377934.81206      1246.059          37.250  
G27  21728628.080   114184710.75508     -2803.133          47.750    21728633.300    88975120.61408     -2184.266          52.750  
G32  22545153.720   118475583.21305      1503.844          33.250  
G08  20441044.360   107418411.91808      -672.301          47.750    20441048.560    83702676.47009      -523.867          53.500  
G21  21049384.400   110615261.52207       863.824          43.750    21049385.860    86193714.69906       673.102          38.250  
R24  19504145.280   104297426.44107       264.363          47.250  
R01  19636759.060   104969725.20506      1377.246          38.250    19636767.260    81643161.20305      1071.199          33.750  
R02  22562833.160   120399602.43605      4390.688          32.250  
> 2023 06 27 11 58 24.6000000  0  9
G01  22081825.900   116040777.27207      2590.941          44.250    22081831.860    90421409.39508      2018.914          47.500  
G02  21826972.760   114701515.42407      1599.191          44.500    21826972.020    89377810.20306      1246.125          37.250  
G27  21728681.420   114184991.06407     -2803.043          47.250    21728686.640    88975339.03408     -2184.195          52.750  
G32  22545125.120   118475432.81606      1503.555          36.750  
G08  20441057.160   107418479.14008      -672.184          47.750    20441061.360    83702728.84709      -523.777          53.500  
G21  21049367.940   110615175.10807       864.168          44.000    21049369.400    86193647.35706       673.371          38.250  
R24  19504140.380   104297400.00907       264.355          47.000  
R01  19636733.300   104969587.51906      1376.875          40.500    19636741.500    81643054.11605      1070.910          33.250  
R02  22562750.800   120399163.31806      4391.387          36.250  
> 2023 06 27 11 58 24.7000000  0  9
G01  22081776.620   116040518.16507      2590.906          43.250    22081782.560    90421207.49508      2018.887          50.500  
G02  21826942.320   114701355.51007      1599.211          44.500    21826941.580    89377685.58906      1246.137          35.750  
G27  21728734.760   114185271.38307     -2803.164          47.250    21728739.980    88975557.46308     -2184.293          52.750  
G32  22545096.520   118475282.37806      1504.348          36.750  
G08  20441069.940   107418546.35708      -672.203          47.750    20441074.160    83702781.22208      -523.789          52.250  
G21  21049351.500   110615088.73607       863.883          44.000    21049352.960    86193580.05105       673.148          34.250  
R24  19504135.420   104297373.53107       264.809          47.000  
R01  19636707.600   104969449.81106      1376.824          40.500    19636715.740    81642947.00805      1070.871          33.500  
R02  22562668.520   120398724.23206      4391.168          36.250  
> 2023 06 27 11 58 24.8000000  0  9
G01  22081727.320   116040259.08607      2590.785          43.250    22081733.260    90421005.62208      2018.793          50.500  
G02  21826911.900   114701195.61007      1598.891          44.750    21826911.160    89377560.99106      1245.891          35.750  
G27  21728788.100   114185551.71108     -2803.273          48.500    21728793.320    88975775.89508     -2184.344          52.750  
G32  22545067.900   118475132.00806      1503.406          41.000  
G08  20441082.740   107418613.58208      -672.305          48.000    20441086.940    83702833.60508      -523.871          52.250  
G21  21049335.080   110615002.38007       863.648          44.250    21049336.540    86193512.75605       672.965          34.250  
R24  19504130.460   104297347.11707       264.258          45.500  
R01  19636681.840   104969312.13607      1376.836          43.750    19636690.200    81642839.93005      1070.879          34.250  
R02  22562586.280   120398285.12206      4391.012          39.500  
> 2023 06 27 11 58 24.9000000  0 10
G01  22081678.060   116040000.00307      2590.715          43.250    22081683.960    90420803.73808      2018.738          50.500  
G14  24290014.280   127644907.02306      1845.340          39.750  
G02  21826881.460   114701035.74907      1598.426          44.750    21826880.740    89377436.41806      1245.527          35.750  
G27  21728841.440   114185832.03008     -2803.266          48.500    21728846.680    88975994.32408     -2184.336          52.500  
G32  22545039.300   118474981.55606      1504.574          41.000  
G08  20441095.540   107418680.81808      -672.387          48.000    20441099.740    83702885.99508      -523.934          52.250  
G21  21049318.640   110614915.99507       864.062          44.250    21049320.100    86193445.43705       673.289          34.250  
R24  19504125.520   104297320.71407       263.965          45.500  
R01  19636656.160   104969174.45607      1376.488          43.750    19636664.440    81642732.84705      1070.609          35.000  
R02  22562503.980   120397846.02006      4390.957          39.500  
> 2023 06 27 11 58 25.0000000  0 10
G01  22081628.760   116039740.95007      2590.285          42.500    22081634.940    90420601.88408      2018.406          49.750  
G14  24289977.380   127644722.28306      1847.367          39.750  
G02  21826851.040   114700875.83607      1599.195          44.750    21826850.260    89377311.80805      1246.121          32.000  
G27  21728894.780   114186112.32608     -2802.914          48.500    21728900.000    88976212.73608     -2184.094          52.500  
G32  22545010.680   118474831.13606      1503.867          40.500  
G08  20441108.320   107418748.00908      -672.035          47.500    20441112.520    83702938.34508      -523.664          51.500  
G21  21049302.220   110614829.61307       863.883          44.250    21049303.780    86193378.12005       673.141          34.000  
R24  19504120.640   104297294.26807       264.566          44.500  
R01  19636630.400   104969036.77207      1376.785          43.750    19636638.680    81642625.76006      1070.840          35.500  
R02  22562421.600   120397406.92606      4391.539          40.000  
> 2023 06 27 11 58 25.1000000  0 10
G01  22081579.460   116039481.83207      2591.219          42.500    22081585.620    90420399.97808      2019.137          49.750  
G14  24289942.220   127644537.51606      1847.574          39.750  
G02  21826820.620   114700715.92307      1599.191          44.500    21826819.820    89377187.19405      1246.121          32.000  
G27  21728948.120   114186392.64808     -2803.262          49.250    21728953.340    88976431.16908     -2184.289          52.500  
G32  22544982.080   118474680.65306      1505.031          40.500  
G08  20441121.120   107418815.24408      -672.262          47.500    20441125.300    83702990.73608      -523.840          51.500  
G21  21049285.780   110614743.24407       863.609          44.000    21049287.340    86193310.81305       672.926          34.000  
R24  19504115.700   104297267.82507       264.562          44.500  
R01  19636604.580   104968899.09207      1376.629          44.250    19636612.940    81642518.67706      1070.719          36.000  
R02  22562339.300   120396967.73406      4391.645          40.000  
> 2023 06 27 11 58 25.2000000  0  9
G01  22081530.160   116039222.71406      2591.426          41.250    22081536.320    90420198.06808      2019.297          49.500  
G14  24289906.500   127644352.82706      1845.613          40.500  
G02  21826790.180   114700555.99307      1599.367          44.500    21826789.380    89377062.57206      1246.258          37.000  
G27  21729001.460   114186672.94308     -2803.117          49.250    21729006.680    88976649.58108     -2184.250          53.000  
G08  20441133.900   107418882.42507      -671.977          47.250    20441138.100    83703043.08308      -523.617          50.500  
G21  21049269.320   110614656.81707       864.121          44.000    21049270.900    86193243.45905       673.324          35.000  
R24  19504110.840   104297241.33907       265.004          44.500  
R01  19636578.820   104968761.37607      1376.996          44.250    19636587.160    81642411.56706      1071.004          36.750  
R02  22562257.100   120396528.56006      4391.785          40.000  
> 2023 06 27 11 58 25.3000000  0  9
G01  22081480.840   116038963.63306      2590.828          41.250    22081487.020    90419996.19008      2018.832          49.500  
G14  24289871.360   127644168.20806      1845.516          40.500  
G02  21826759.760   114700396.03807      1599.504          44.500    21826758.940    89376937.92706      1246.363          37.000  
G27  21729054.800   114186953.25208     -2803.086          50.250    21729060.020    88976868.00408     -2184.227          53.000  
G08  20441146.680   107418949.64707      -672.148          47.250    20441150.880    83703095.46008      -523.754          50.500  
G21  21049252.880   110614570.43507       863.977          44.250    21049254.460    86193176.14505       673.211          35.000  
R24  19504105.900   104297214.87207       264.879          42.750  
R01  19636553.080   104968623.68007      1377.008          44.750    19636561.580    81642304.47006      1071.012          38.000  
R02  22562174.800   120396089.41306      4391.563          40.750  
> 2023 06 27 11 58 25.4000000  0  9
G01  22081431.520   116038704.48906      2591.570          41.250    22081437.700    90419794.26408      2019.410          50.500  
G14  24289834.580   127643983.41406      1847.699          36.750  
G02  21826729.320   114700236.10107      1599.328          44.500    21826728.520    89376813.29706      1246.227          35.750  
G27  21729108.140   114187233.55308     -2802.969          50.250    21729113.360    88977086.42209     -2184.137          53.750  
G08  20441159.480   107419016.87007      -672.387          47.250    20441163.680    83703147.83908      -523.937          53.250  
G21  21049236.440   110614484.02907       863.934          44.250    21049238.020    86193108.80706       673.180          36.250  
R24  19504100.980   104297188.36807       265.187          42.750  
R01  19636527.320   104968485.99107      1376.781          44.750    19636535.820    81642197.37706      1070.832          39.000  
R02  22562092.440   120395650.27406      4391.543          40.750  
> 2023 06 27 11 58 25.5000000  0  9
G01  22081382.280   116038445.42906      2590.625          41.250    22081388.680    90419592.39708      2018.668          50.500  
G14  24289799.420   127643798.62606      1847.605          36.750  
G02  21826698.880   114700076.19307      1599.297          43.250    21826698.360    89376688.68906      1246.199          35.750  
G27  21729161.480   114187513.86508     -2803.078          50.500    21729166.680    88977304.84009     -2184.227          53.750  
G08  20441172.260   107419084.10008      -672.203          48.750    20441176.460    83703200.22208      -523.797          53.250  
G21  21049219.980   110614397.59607       864.117          44.250    21049221.560    86193041.45306       673.324          36.250  
R24  19504096.020   104297161.91107       264.488          42.500  
R01  19636501.680   104968348.28907      1376.906          44.500    19636510.060    81642090.27306      1070.930          39.750  
R02  22562010.140   120395211.14207      4391.258          43.250  
> 2023 06 27 11 58 25.6000000  0  9
G01  22081332.980   116038186.31106      2591.164          41.250    22081339.360    90419390.48708      2019.090          50.500  
G14  24289763.420   127643614.09006      1846.531          36.750  
G02  21826668.440   114699916.28007      1599.000          43.250    21826667.920    89376564.07706      1245.965          35.750  
G27  21729214.820   114187794.16808     -2803.117          50.500    21729220.020    88977523.25509     -2184.258          53.750  
G08  20441185.060   107419151.33308      -672.352          48.750    20441189.260    83703252.60908      -523.914          53.250  
G21  21049203.540   110614311.21907       863.578          44.250    21049205.140    86192974.14606       672.902          36.250  
R24  19504091.060   104297135.45207       264.441          42.500  
R01  19636475.920   104968210.61107      1376.770          44.500    19636484.300    81641983.18806      1070.824          40.250  
R02  22561927.860   120394772.01107      4391.008          43.250  
> 2023 06 27 11 58 25.7000000  0  9
G01  22081283.580   116037927.09906      2592.105          40.000    22081290.040    90419188.50108      2019.824          51.000  
G14  24289728.240   127643429.27606      1848.094          40.000  
G02  21826638.000   114699756.37107      1599.016          43.250    21826637.480    89376439.47005      1245.977          34.250  
G27  21729268.160   114188074.43808     -2802.766          50.500    21729273.360    88977741.64409     -2183.984          53.500  
G08  20441197.860   107419218.53908      -672.016          49.000    20441202.040    83703304.97409      -523.652          53.500  
G21  21049187.100   110614224.82707       863.922          44.250    21049188.680    86192906.82306       673.172          37.250  
R24  19504086.100   104297108.95507       264.910          42.500  
R01  19636450.160   104968072.92007      1376.902          44.500    19636458.540    81641876.09306      1070.930          40.750  
R02  22561845.560   120394332.85107      4391.598          43.250  
> 2023 06 27 11 58 25.8000000  0  9
G01  22081234.300   116037668.10706      2590.723          40.000    22081240.760    90418986.68708      2018.746          51.000  
G14  24289692.760   127643244.61106      1846.727          40.000  
G02  21826607.560   114699596.43207      1599.488          43.500    21826607.060    89376314.83905      1246.348          34.250  
G27  21729321.500   114188354.70208     -2802.500          50.500    21729326.700    88977960.02609     -2183.777          53.500  
G08  20441210.640   107419285.74308      -672.098          49.000    20441214.840    83703357.34109      -523.715          53.500  
G21  21049170.640   110614138.40007       864.211          44.750    21049172.240    86192839.47406       673.395          37.250  
R24  19504081.180   104297082.46407       264.910          44.000  
R01  19636424.400   104967935.20507      1377.102          45.000    19636432.820    81641768.97906      1071.078          41.250  
R02  22561763.160   120393893.68707      4391.816          44.500  
> 2023 06 27 11 58 25.9000000  0  9
G01  22081184.900   116037408.87606      2592.105          39.500    22081191.420    90418784.68508      2019.824          50.750  
G14  24289657.620   127643059.95706      1846.535          39.500  
G02  21826577.120   114699436.46907      1599.699          43.500    21826576.620    89376190.18805      1246.512          30.500  
G27  21729374.820   114188634.93708     -2802.242          50.500    21729380.020    88978178.38909     -2183.637          53.750  
G08  20441223.420   107419352.90508      -671.547          49.000    20441227.620    83703409.67108      -523.289          52.750  
G21  21049154.200   110614051.93607       864.746          44.750    21049155.780    86192772.09505       673.812          34.750  
R24  19504076.220   104297055.94607       265.355          44.000  
R01  19636398.640   104967797.48407      1377.238          45.000    19636407.040    81641661.86106      1071.184          41.250  
R02  22561680.860   120393454.49207      4391.957          44.500  
> 2023 06 27 11 58 26.0000000  0  9
G01  22081135.600   116037149.80506      2590.914          39.500    22081142.320    90418582.80808      2018.891          50.750  
G14  24289622.200   127642875.11706      1848.563          39.500  
G02  21826546.700   114699276.55807      1599.137          43.000    21826546.080    89376065.58305      1246.074          30.500  
G27  21729428.160   114188915.22008     -2802.797          50.250    21729433.340    88978396.78509     -2184.012          53.750  
G08  20441236.200   107419420.14608      -672.328          48.500    20441240.400    83703462.06408      -523.895          52.750  
G21  21049137.760   110613965.55607       863.492          44.750    21049139.240    86192704.78605       672.836          34.750  
R24  19504071.180   104297029.46007       264.629          44.500  
R01  19636372.880   104967659.80307      1376.547          44.750    19636381.300    81641554.77606      1070.648          41.250  
R02  22561598.520   120393015.31807      4391.504          44.500  
> 2023 06 27 11 58 26.1000000  0  9
G01  22081086.240   116036890.69506      2591.340          39.500    22081093.020    90418380.90208      2019.223          50.750  
G14  24289587.080   127642690.63106      1844.699          39.500  
G02  21826516.260   114699116.63907      1599.434          43.000    21826515.640    89375940.97105      1246.305          30.500  
G27  21729481.480   114189195.49208     -2802.691          50.250    21729486.680    88978615.17309     -2183.930          54.000  
G08  20441249.000   107419487.37708      -672.406          48.500    20441253.200    83703514.45108      -523.957          52.750  
G21  21049121.320   110613879.16607       863.930          44.750    21049122.800    86192637.47105       673.176          34.750  
R24  19504066.240   104297002.99807       264.742          44.500  
R01  19636347.160   104967522.14207      1376.539          44.750    19636355.540    81641447.70106      1070.641          41.250  
R02  22561516.220   120392576.15207      4391.605          44.500  
> 2023 06 27 11 58 26.2000000  0  9
G01  22081036.940   116036631.61906      2591.039          40.500    22081043.720    90418179.02008      2018.988          48.750  
G14  24289551.640   127642505.92406      1847.277          39.500  
G02  21826485.840   114698956.72807      1599.027          43.000    21826485.220    89375816.36505      1245.988          33.000  
G27  21729534.820   114189475.75608     -2802.574          50.250    21729540.000    88978833.55809     -2183.816          54.000  
G08  20441261.800   107419554.61508      -672.402          49.250    20441266.000    83703566.84508      -523.953          53.000  
G21  21049104.880   110613792.75507       863.820          44.750    21049106.360    86192570.13805       673.090          34.000  
R24  19504061.280   104296976.53907       264.453          44.000  
R01  19636321.400   104967384.45307      1376.895          44.750    19636329.780    81641340.61006      1070.918          41.250  
R02  22561433.820   120392137.02607      4391.039          44.000  
> 2023 06 27 11 58 26.3000000  0  9
G01  22080987.660   116036372.53606      2590.656          40.500    22080994.400    90417977.13508      2018.688          48.750  
G14  24289516.480   127642321.09906      1847.793          39.500  
G02  21826455.400   114698796.84907      1598.668          42.500    21826454.780    89375691.78405      1245.707          33.000  
G27  21729588.160   114189756.02308     -2802.719          50.000    21729593.340    88979051.94209     -2183.953          54.000  
G08  20441274.600   107419621.85608      -672.387          49.250    20441278.780    83703619.23808      -523.941          53.000  
G21  21049088.440   110613706.37007       863.984          43.750    21049089.920    86192502.82905       673.219          34.000  
R24  19504056.340   104296950.12307       264.180          44.000  
R01  19636295.720   104967246.78607      1376.711          44.750    19636304.100    81641233.53606      1070.777          40.750  
R02  22561351.520   120391697.86607      4391.418          44.000  
> 2023 06 27 11 58 26.4000000  0  9
G01  22080938.340   116036113.36307      2591.426          42.000    22080945.100    90417775.18207      2019.289          46.250  
G14  24289481.180   127642136.69206      1844.035          40.500  
G02  21826424.960   114698636.94607      1598.988          42.500    21826424.360    89375567.18405      1245.957          29.500  
G27  21729641.480   114190036.26808     -2802.453          50.000    21729646.660    88979270.30909     -2183.746          54.250  
G08  20441287.380   107419689.06208      -672.184          49.500    20441291.580    83703671.60708      -523.785          52.500  
G21  21049072.000   110613619.97207       864.055          43.750    21049073.480    86192435.50606       673.273          37.250  
R24  19504051.380   104296923.59907       265.020          44.000  
R01  19636269.960   104967109.08107      1376.883          44.750    19636278.340    81641126.43406      1070.914          40.250  
R02  22561269.100   120391258.66507      4392.137          44.000  
> 2023 06 27 11 58 26.5000000  0  9
G01  22080888.980   116035854.29507      2590.871          42.000    22080895.620    90417573.30407      2018.855          46.250  
G14  24289446.020   127641951.87506      1847.559          40.500  
G02  21826394.560   114698477.07806      1598.664          39.500    21826394.040    89375442.61105      1245.707          29.500  
G27  21729694.820   114190316.53008     -2802.566          50.250    21729700.000    88979488.69509     -2183.832          54.250  
G08  20441300.180   107419756.31908      -672.355          49.500    20441304.360    83703724.01608      -523.918          52.500  
G21  21049055.560   110613533.58207       864.066          43.000    21049056.920    86192368.19306       673.293          37.250  
R24  19504046.440   104296897.16706       264.461          41.250  
R01  19636244.300   104966971.41907      1376.715          45.000    19636252.580    81641019.36606      1070.781          39.750  
R02  22561186.800   120390819.50207      4392.043          44.000  
> 2023 06 27 11 58 26.6000000  0  8
G01  22080839.680   116035595.19207      2590.797          42.250    22080846.320    90417371.40905      2018.801          30.750  
G02  21826364.140   114698317.20406      1598.504          39.500    21826363.620    89375318.03805      1245.582          29.500  
G27  21729748.140   114190596.80708     -2802.777          50.250    21729753.340    88979707.09009     -2183.996          54.000  
G08  20441312.980   107419823.57008      -672.641          49.500    20441317.160    83703776.42009      -524.141          53.500  
G21  21049039.100   110613447.15507       864.258          43.000    21049040.460    86192300.85406       673.445          38.250  
R24  19504041.460   104296870.69406       264.574          41.250  
R01  19636218.540   104966833.77607      1376.379          45.000    19636226.840    81640912.31006      1070.520          39.250  
R02  22561104.460   120390380.32007      4392.012          44.000  
> 2023 06 27 11 58 26.7000000  0  8
G01  22080790.380   116035336.15107      2590.133          42.250    22080797.040    90417169.55605      2018.281          30.750  
G02  21826333.720   114698157.32506      1598.887          38.500    21826333.200    89375193.45905      1245.883          29.500  
G27  21729801.480   114190877.10008     -2803.027          50.500    21729806.660    88979925.50309     -2184.191          54.000  
G08  20441325.780   107419890.85308      -672.812          50.000    20441329.960    83703828.84609      -524.273          53.500  
G21  21049022.660   110613360.77007       863.695          43.750    21049024.040    86192233.54706       673.004          38.250  
R24  19504036.520   104296844.26207       264.465          42.250  
R01  19636192.780   104966696.14907      1376.301          45.000    19636201.080    81640805.27106      1070.461          38.750  
R02  22561022.180   120389941.18107      4391.535          44.000  
> 2023 06 27 11 58 26.8000000  0  8
G01  22080741.100   116035077.14307      2589.887          42.250    22080747.740    90416967.73205      2018.090          30.750  
G02  21826303.300   114697997.47706      1598.035          38.500    21826302.780    89375068.90705      1244.945          29.500  
G27  21729854.840   114191157.43808     -2803.551          50.500    21729860.020    88980143.94409     -2184.602          54.000  
G08  20441338.580   107419958.14608      -673.098          50.000    20441342.780    83703881.28709      -524.496          53.500  
G21  21049006.220   110613274.44807       863.121          43.750    21049007.600    86192166.29106       672.559          38.250  
R24  19504031.580   104296817.89407       263.316          42.250  
R01  19636167.020   104966558.54107      1376.027          45.000    19636175.320    81640698.24406      1070.250          38.000  
R02  22560939.900   120389502.05507      4390.965          44.000  
> 2023 06 27 11 58 26.9000000  0  8
G01  22080691.820   116034818.07807      2590.512          41.750    22080698.440    90416765.86306      2018.578          39.250  
G02  21826272.840   114697837.62706      1598.469          38.500    21826272.360    89374944.34805      1245.555          33.500  
G27  21729908.180   114191437.74408     -2803.207          50.500    21729913.360    88980362.36609     -2184.332          53.500  
G08  20441351.400   107420025.44808      -673.105          51.000    20441355.580    83703933.72709      -524.500          54.500  
G21  21048989.780   110613188.06607       863.680          43.750    21048991.180    86192098.98606       672.992          38.000  
R24  19504026.640   104296791.47207       264.234          42.250  
R01  19636141.240   104966420.93507      1375.875          45.000    19636149.580    81640591.22006      1070.133          37.750  
R02  22560857.620   120389062.96107      4390.813          44.000  
> 2023 06 27 11 58 27.0000000  0  8
G01  22080642.540   116034559.04907      2590.715          41.750  
G02  21826242.440   114697677.78706      1598.211          38.250    21826242.280    89374819.79705      1245.352          33.500  
G27  21729961.520   114191718.08208     -2803.332          50.500    21729966.700    88980580.81109     -2184.422          53.500  
G08  20441364.200   107420092.77508      -673.348          51.000    20441368.400    83703986.19209      -524.695          54.500  
G21  21048973.360   110613101.75707       863.152          45.000    21048974.760    86192031.73706       672.586          38.000  
R24  19504021.640   104296765.08507       263.957          44.250  
R01  19636115.520   104966283.37507      1375.625          44.750    19636123.840    81640484.23506      1069.938          37.250  
R02  22560775.220   120388623.84307      4391.020          44.500  
> 2023 06 27 11 58 27.1000000  0  8
G01  22080593.260   116034300.01807      2590.105          43.250  
G02  21826212.020   114697517.96806      1598.172          38.250    21826211.860    89374695.25906      1245.320          36.250  
G27  21730014.860   114191998.42808     -2803.543          50.500    21730020.040    88980799.26608     -2184.586          53.000  
G08  20441377.020   107420160.11308      -673.480          51.000    20441381.200    83704038.65909      -524.797          54.000  
G21  21048956.920   110613015.42707       863.445          45.000    21048958.340    86191964.47106       672.816          37.250  
R24  19504016.700   104296738.69207       263.977          44.250  
R01  19636089.780   104966145.84107      1375.051          44.750    19636098.120    81640377.26606      1069.492          36.750  
R02  22560692.940   120388184.75507      4390.863          44.500  
> 2023 06 27 11 58 27.2000000  0  8
G01  22080543.960   116034040.99507      2590.508          43.250  
G02  21826181.600   114697358.07606      1598.832          40.250    21826181.440    89374570.66606      1245.836          36.250  
G27  21730068.220   114192278.77908     -2803.547          50.750    21730073.400    88981017.72608     -2184.590          53.000  
G08  20441389.820   107420227.45608      -673.367          51.250    20441394.020    83704091.13309      -524.711          54.000  
G21  21048940.500   110612929.12407       862.949          45.000    21048941.920    86191897.22406       672.430          37.250  
R24  19504011.780   104296712.30807       263.980          44.000  
R01  19636064.040   104966008.29707      1375.594          44.000    19636072.380    81640270.29106      1069.914          36.500  
R02  22560610.680   120387745.64507      4391.023          43.750  
> 2023 06 27 11 58 27.3000000  0  8
G01  22080494.720   116033781.97107      2590.195          43.250  
G02  21826151.200   114697198.26006      1598.492          40.250    21826151.020    89374446.13006      1245.570          36.250  
G27  21730121.580   114192559.12408     -2803.551          50.750    21730126.760    88981236.17908     -2184.594          52.000  
G08  20441402.640   107420294.78108      -673.305          51.250    20441406.840    83704143.59409      -524.660          54.000  
G21  21048924.080   110612842.79407       863.230          45.000    21048925.480    86191829.95406       672.648          37.250  
R24  19504006.860   104296685.92907       263.652          44.000  
R01  19636038.260   104965870.75507      1375.398          44.000    19636046.620    81640163.31506      1069.762          35.750  
R02  22560528.380   120387306.52707      4391.414          43.750  
> 2023 06 27 11 58 27.4000000  0  8
G01  22080445.420   116033522.98507      2590.090          42.000  
G02  21826120.780   114697038.44906      1598.168          40.250    21826120.620    89374321.59705      1245.316          34.500  
G27  21730174.920   114192839.47508     -2803.477          50.750    21730180.100    88981454.63808     -2184.535          52.000  
G08  20441415.460   107420362.14608      -673.625          51.500    20441419.660    83704196.08109      -524.910          54.000  
G21  21048907.660   110612756.47007       863.238          45.000    21048909.060    86191762.69205       672.652          34.500  
R24  19504001.960   104296659.55307       263.922          43.250  
R01  19636012.520   104965733.20007      1375.680          44.000    19636020.880    81640056.32906      1069.980          35.500  
R02  22560446.120   120386867.47007      4390.602          42.500  
> 2023 06 27 11 58 27.5000000  0  8
G01  22080396.140   116033263.93807      2590.199          42.000  
G02  21826090.360   114696878.66906      1597.578          41.250    21826090.120    89374197.09005      1244.855          34.500  
G27  21730228.280   114193119.85508     -2803.781          50.250    21730233.460    88981673.11808     -2184.770          52.000  
G08  20441428.280   107420429.50508      -673.641          51.500    20441432.460    83704248.56909      -524.922          54.000  
G21  21048891.220   110612670.16907       863.180          44.750    21048892.600    86191695.44705       672.609          34.500  
R24  19503997.040   104296633.21107       263.508          43.250  
R01  19635986.860   104965595.66707      1375.254          44.000    19635995.160    81639949.35906      1069.578          35.750  
R02  22560363.820   120386428.40307      4390.582          42.500  
> 2023 06 27 11 58 27.6000000  0  8
G01  22080346.860   116033004.97006      2590.527          39.500  
G02  21826059.920   114696718.78206      1598.656          41.250    21826059.680    89374072.50305      1245.695          35.250  
G27  21730281.620   114193400.22408     -2803.898          50.250    21730286.800    88981891.59208     -2184.859          53.000  
G08  20441441.100   107420496.88708      -673.879          51.500    20441445.280    83704301.07109      -525.109          53.750  
G21  21048874.780   110612583.84507       863.148          44.750    21048876.180    86191628.18306       672.582          37.250  
R24  19503992.140   104296606.83507       263.695          43.250  
R01  19635961.120   104965458.16807      1374.949          44.000    19635969.440    81639842.41506      1069.414          35.750  
R02  22560281.640   120385989.34907      4390.543          42.500  
> 2023 06 27 11 58 27.7000000  0  8
G01  22080297.580   116032746.15106      2587.941          39.500  
G02  21826029.520   114696559.04006      1598.074          39.500    21826029.280    89373948.02205      1245.242          35.250  
G27  21730334.980   114193680.62808     -2803.988          50.250    21730340.160    88982110.09008     -2184.930          53.000  
G08  20441453.940   107420564.28808      -674.043          51.500    20441458.120    83704353.58709      -525.234          53.750  
G21  21048858.380   110612497.56007       862.984          45.250    21048859.760    86191560.94806       672.457          37.250  
R24  19503987.220   104296580.48007       263.480          43.000  
R01  19635935.400   104965320.68807      1374.727          43.250    19635943.720    81639735.48806      1069.355          36.750  
R02  22560199.380   120385550.32807      4390.398          43.750  
> 2023 06 27 11 58 27.8000000  0  8
G01  22080248.280   116032487.10205      2589.973          33.250  
G02  21825999.100   114696399.18206      1598.414          39.500    21825998.860    89373823.45505      1245.504          33.250  
G27  21730388.340   114193961.00508     -2803.805          50.250    21730393.520    88982328.56808     -2184.785          53.250  
G08  20441466.760   107420631.67108      -673.863          51.500    20441470.940    83704406.09109      -525.098          54.000  
G21  21048841.960   110612411.25307       862.898          45.250    21048843.340    86191493.70106       672.387          38.000  
R24  19503982.300   104296554.06907       264.242          43.000  
R01  19635909.680   104965183.16707      1375.008          43.250    19635917.980    81639628.52806      1069.449          36.750  
R02  22560117.120   120385111.28707      4390.227          43.750  
> 2023 06 27 11 58 27.9000000  0  8
G01  22080199.040   116032228.22305      2588.852          33.250  
G02  21825968.680   114696239.42806      1597.996          38.750    21825968.460    89373698.96805      1245.180          33.250  
G27  21730441.700   114194241.40808     -2803.984          50.000    21730446.880    88982547.06608     -2184.926          53.250  
G08  20441479.580   107420699.09108      -674.219          51.500    20441483.760    83704458.62309      -525.375          54.000  
G21  21048825.540   110612324.95307       862.965          45.500    21048826.920    86191426.45106       672.441          38.000  
R24  19503977.380   104296527.70107       263.855          42.750  
R01  19635883.960   104965045.67407      1375.008          43.250    19635892.260    81639521.58506      1069.449          37.000  
R02  22560034.840   120384672.24107      4390.191          42.500  
> 2023 06 27 11 58 28.0000000  0  8
G01  22080149.740   116031969.11805      2589.855          33.250  
G02  21825938.280   114696079.66506      1597.543          38.750    21825938.400    89373574.47105      1244.824          33.250  
G27  21730495.060   114194521.79108     -2803.820          50.000    21730500.220    88982765.54608     -2184.801          53.250  
G08  20441492.400   107420766.48908      -674.059          51.500    20441496.600    83704511.13809      -525.254          54.000  
G21  21048809.100   110612238.64407       863.207          45.500    21048810.460    86191359.20206       672.633          38.000  
R24  19503972.420   104296501.33507       263.605          42.750  
R01  19635858.260   104964908.21007      1374.762          43.250    19635866.540    81639414.66406      1069.258          38.000  
R02  22559952.620   120384233.18707      4390.465          42.500  
> 2023 06 27 11 58 28.1000000  0  7
G02  21825907.860   114695919.83306      1598.430          38.750    21825908.000    89373449.92206      1245.516          36.500  
G27  21730548.420   114194802.21308     -2804.215          50.000    21730553.580    88982984.05608     -2185.105          53.250  
G08  20441505.240   107420833.90608      -674.199          52.000    20441509.420    83704563.66409      -525.363          54.250  
G21  21048792.680   110612152.34607       862.863          45.500    21048794.040    86191291.95606       672.363          39.250  
R24  19503967.480   104296474.95607       263.598          42.750  
R01  19635832.640   104964770.75107      1374.391          43.250    19635840.840    81639307.75006      1068.969          38.250  
R02  22559870.340   120383794.17907      4390.188          42.500  
> 2023 06 27 11 58 28.2000000  0  7
G02  21825877.460   114695760.02506      1598.152          40.500    21825877.580    89373325.39206      1245.297          36.500  
G27  21730601.780   114195082.63208     -2804.328          49.250    21730606.960    88983202.56508     -2185.195          53.250  
G08  20441518.080   107420901.35408      -674.441          52.000    20441522.260    83704616.22109      -525.551          54.250  
G21  21048776.260   110612066.08707       862.668          46.000    21048777.620    86191224.74406       672.211          39.250  
R24  19503962.580   104296448.64707       263.156          43.500  
R01  19635806.920   104964633.31407      1374.289          43.750    19635815.120    81639200.85206      1068.891          38.500  
R02  22559788.200   120383355.17306      4390.094          40.000  
> 2023 06 27 11 58 28.3000000  0  7
G02  21825847.040   114695600.20106      1598.242          40.500    21825847.160    89373200.84805      1245.367          33.000  
G27  21730655.140   114195363.05608     -2804.426          49.250    21730660.320    88983421.07709     -2185.270          54.250  
G08  20441530.900   107420968.75508      -674.195          52.000    20441535.080    83704668.73909      -525.359          54.000  
G21  21048759.840   110611979.77807       862.867          46.000    21048761.200    86191157.49206       672.367          38.000  
R24  19503957.640   104296422.26507       263.762          43.500  
R01  19635781.200   104964495.87107      1374.125          43.750    19635789.380    81639093.95006      1068.711          38.250  
R02  22559705.940   120382916.26606      4388.910          40.000  
> 2023 06 27 11 58 28.4000000  0  7
G02  21825816.640   114695440.42406      1597.969          40.000    21825816.760    89373076.34005      1245.156          33.000  
G27  21730708.520   114195643.53108     -2804.758          49.000    21730713.680    88983639.63109     -2185.531          54.250  
G08  20441543.740   107421036.22208      -674.691          51.750    20441547.920    83704721.30509      -525.746          54.000  
G21  21048743.440   110611893.51907       862.566          45.500    21048744.780    86191090.28006       672.133          38.000  
R24  19503952.700   104296395.92607       263.234          44.000  
R01  19635755.500   104964358.48407      1373.797          44.250    19635763.660    81638987.09406      1068.508          38.250  
R02  22559623.740   120382477.25806      4389.750          38.000  
> 2023 06 27 11 58 28.5000000  0  7
G02  21825786.240   114695280.62606      1598.332          40.000    21825786.300    89372951.81905      1245.434          33.000  
G27  21730761.880   114195923.98908     -2804.684          49.000    21730767.060    88983858.16809     -2185.473          54.250  
G08  20441556.580   107421103.67308      -674.656          51.750    20441560.760    83704773.86209      -525.719          54.000  
G21  21048727.020   110611807.25807       862.547          45.500    21048728.420    86191023.06306       672.113          38.000  
R24  19503947.780   104296369.58707       263.613          44.000  
R01  19635729.760   104964221.07907      1373.938          44.250    19635737.960    81638880.22306      1068.617          38.000  
R02  22559541.480   120382038.28906      4389.602          38.000  
> 2023 06 27 11 58 28.6000000  0  7
G02  21825755.840   114695120.87606      1597.152          40.000    21825755.900    89372827.33205      1244.516          35.000  
G27  21730815.260   114196204.45308     -2804.762          49.000    21730820.440    88984076.71509     -2185.531          54.250  
G08  20441569.420   107421171.15608      -674.918          51.750    20441573.600    83704826.44409      -525.922          54.000  
G21  21048710.620   110611720.97807       862.574          45.500    21048712.000    86190955.83406       672.137          37.500  
R24  19503942.840   104296343.26507       263.016          43.000  
R01  19635704.060   104964083.70607      1373.770          44.250    19635712.260    81638773.37706      1068.488          37.500  
R02  22559459.200   120381599.37906      4389.277          37.250  
> 2023 06 27 11 58 28.7000000  0  7
G02  21825725.400   114694961.08906      1597.707          40.000    21825725.500    89372702.81605      1244.945          35.000  
G27  21730868.640   114196484.95908     -2805.047          49.000    21730873.820    88984295.29109     -2185.754          54.250  
G08  20441582.260   107421238.65908      -675.086          51.750    20441586.440    83704879.04409      -526.051          54.000  
G21  21048694.220   110611634.81407       861.719          45.500    21048695.600    86190888.69106       671.469          37.500  
R24  19503937.940   104296317.01707       262.500          43.000  
R01  19635678.380   104963946.34907      1373.410          45.500    19635686.580    81638666.54406      1068.207          36.750  
R02  22559376.940   120381160.45606      4389.051          37.250  
> 2023 06 27 11 58 28.8000000  0  7
G02  21825695.000   114694801.28806      1598.246          40.000    21825695.100    89372578.29405      1245.367          34.000  
G27  21730922.020   114196765.48108     -2805.465          49.000    21730927.180    88984513.88209     -2186.082          54.250  
G08  20441595.120   107421306.18608      -675.387          51.750    20441599.280    83704931.65809      -526.285          54.000  
G21  21048677.800   110611548.55307       862.156          45.500    21048679.180    86190821.47406       671.809          38.000  
R24  19503933.000   104296290.74707       262.570          43.000  
R01  19635652.680   104963809.03207      1373.043          45.500    19635660.800    81638559.74406      1067.926          36.750  
R02  22559294.740   120380721.66106      4388.195          37.250  
> 2023 06 27 11 58 28.9000000  0  7
G02  21825664.600   114694641.52206      1597.809          40.000    21825664.680    89372453.79705      1245.027          34.000  
G27  21730975.400   114197046.01808     -2805.426          49.250    21730980.580    88984732.48009     -2186.109          54.250  
G08  20441607.960   107421373.72408      -675.441          51.750    20441612.140    83704984.28309      -526.328          54.000  
G21  21048661.380   110611462.35407       861.914          45.500    21048662.780    86190754.30906       671.621          38.000  
R24  19503928.080   104296264.47507       262.211          41.500  
R01  19635626.940   104963671.72007      1372.730          44.750    19635635.100    81638452.94606      1067.684          36.000  
R02  22559212.480   120380282.70905      4388.625          35.000  
> 2023 06 27 11 58 29.0000000  0  7
G02  21825634.220   114694481.83706      1596.898          40.000    21825634.060    89372329.36705      1244.320          34.750  
G27  21731028.800   114197326.56108     -2805.563          49.250    21731033.960    88984951.09109     -2186.152          53.750  
G08  20441620.820   107421441.24608      -675.301          51.750    20441624.980    83705036.89409      -526.223          54.000  
G21  21048644.980   110611376.11907       862.328          45.500    21048646.360    86190687.11106       671.945          37.500  
R24  19503923.140   104296238.17907       262.766          41.500  
R01  19635601.260   104963534.41407      1372.938          44.750    19635609.420    81638346.15406      1067.844          36.000  
R02  22559130.100   120379843.82005      4389.023          35.000  
> 2023 06 27 11 58 29.1000000  0  7
G02  21825603.800   114694322.06307      1597.668          41.750    21825603.660    89372204.86805      1244.922          34.750  
G27  21731082.180   114197607.09608     -2805.445          49.500    21731087.360    88985169.69209     -2186.109          53.750  
G08  20441633.680   107421508.81008      -675.766          51.500    20441637.840    83705089.54109      -526.586          54.000  
G21  21048628.580   110611289.91607       861.797          44.750    21048629.960    86190619.94106       671.531          37.500  
R24  19503918.220   104296211.85906       263.336          40.000  
R01  19635575.660   104963397.13907      1372.707          44.750    19635583.740    81638239.38706      1067.664          35.750  
R02  22559047.840   120379404.90505      4389.789          35.250  
> 2023 06 27 11 58 29.2000000  0  7
G02  21825573.420   114694162.39907      1596.648          41.750    21825573.280    89372080.45705      1244.125          34.750  
G27  21731135.560   114197887.69908     -2806.066          49.500    21731140.740    88985388.34509     -2186.547          53.750  
G08  20441646.540   107421576.40608      -676.152          51.500    20441650.700    83705142.21309      -526.887          54.000  
G21  21048612.200   110611203.75107       861.355          44.750    21048613.560    86190552.79606       671.187          37.500  
R24  19503913.220   104296185.65106       261.957          40.000  
R01  19635549.980   104963259.87807      1372.391          44.750    19635558.060    81638132.63105      1067.418          35.250  
R02  22558965.640   120378966.12105      4388.090          35.250  
> 2023 06 27 11 58 29.3000000  0  7
G02  21825543.020   114694002.72207      1596.664          41.750    21825542.880    89371956.03505      1244.137          31.750  
G27  21731188.960   114198168.32008     -2806.211          49.500    21731194.140    88985607.01408     -2186.656          53.000  
G08  20441659.400   107421644.01708      -676.172          51.500    20441663.580    83705194.89309      -526.902          54.250  
G21  21048595.800   110611117.59207       861.617          44.750    21048597.180    86190485.66106       671.391          37.250  
R24  19503908.300   104296159.43006       262.066          40.000  
R01  19635524.300   104963122.66507      1372.098          44.750    19635532.380    81638025.91206      1067.191          36.250  
R02  22558883.400   120378527.27505      4388.555          35.250  
> 2023 06 27 11 58 29.4000000  0  7
G02  21825512.620   114693843.05107      1596.535          43.000    21825512.500    89371831.61605      1244.039          31.750  
G27  21731242.360   114198448.93608     -2806.406          48.750    21731247.540    88985825.68008     -2186.836          53.000  
G08  20441672.280   107421711.63908      -676.387          51.500    20441676.440    83705247.58309      -527.070          54.250  
G21  21048579.400   110611031.44907       861.230          44.750    21048580.780    86190418.53706       671.090          37.250  
R24  19503903.420   104296133.25206       261.547          40.750  
R01  19635498.640   104962985.46607      1371.852          45.250    19635506.700    81637919.20306      1067.000          36.250  
R02  22558801.100   120378088.49605      4388.164          35.000  
> 2023 06 27 11 58 29.5000000  0  7
G02  21825482.240   114693683.38207      1597.023          43.000    21825482.100    89371707.19606      1244.418          36.500  
G27  21731295.760   114198729.57108     -2806.430          48.750    21731300.960    88986044.36008     -2186.824          53.250  
G08  20441685.140   107421779.28908      -676.500          51.500    20441689.320    83705300.29809      -527.160          54.250  
G21  21048563.000   110610945.31407       861.371          44.750    21048564.320    86190351.41806       671.199          38.500  
R24  19503898.520   104296107.09206       261.602          40.750  
R01  19635472.980   104962848.29907      1371.723          45.250    19635481.040    81637812.51906      1066.898          36.500  
R02  22558718.880   120377649.72205      4387.184          35.000  
> 2023 06 27 11 58 29.6000000  0  7
G02  21825451.860   114693523.71507      1596.621          43.250    21825451.720    89371582.78306      1244.105          36.500  
G27  21731349.180   114199010.19808     -2806.289          49.250    21731354.360    88986263.03208     -2186.715          53.250  
G08  20441698.020   107421846.91908      -676.484          51.500    20441702.180    83705352.99409      -527.145          54.250  
G21  21048546.640   110610859.17607       861.227          44.750    21048547.920    86190284.29806       671.086          38.500  
R24  19503893.640   104296080.91106       261.551          41.000  
R01  19635447.320   104962711.12807      1371.582          44.750    19635455.380    81637705.83306      1066.789          36.500  
R02  22558636.660   120377210.98606      4387.434          37.500  
> 2023 06 27 11 58 29.7000000  0  7
G02  21825421.480   114693364.07007      1596.375          43.250    21825421.340    89371458.38406      1243.914          36.500  
G27  21731402.580   114199290.85408     -2806.563          49.250    21731407.760    88986481.72508     -2186.930          53.250  
G08  20441710.900   107421914.59108      -676.797          51.500    20441715.060    83705405.72309      -527.391          54.250  
G21  21048530.260   110610773.07007       861.133          44.750    21048531.540    86190217.20206       671.012          38.500  
R24  19503888.760   104296054.75606       261.582          41.000  
R01  19635421.660   104962573.97207      1371.395          44.750    19635429.740    81637599.15806      1066.645          36.500  
R02  22558554.440   120376772.21006      4387.184          37.500  
> 2023 06 27 11 58 29.8000000  0  7
G02  21825391.100   114693204.42707      1596.102          43.250    21825390.960    89371333.98505      1243.699          35.250  
G27  21731455.980   114199571.50908     -2806.520          49.250    21731461.180    88986700.42008     -2186.895          53.250  
G08  20441723.780   107421982.27008      -676.805          51.500    20441727.940    83705458.45709      -527.395          54.250  
G21  21048513.860   110610686.94507       861.344          44.750    21048515.140    86190150.09206       671.176          37.750  
R24  19503883.880   104296028.59906       261.840          40.250  
R01  19635396.000   104962436.82807      1371.285          44.750    19635404.080    81637492.49106      1066.559          36.500  
R02  22558472.200   120376333.44906      4387.504          38.000  
> 2023 06 27 11 58 29.9000000  0  7
G02  21825360.740   114693044.75807      1596.785          43.250    21825360.580    89371209.56505      1244.234          35.250  
G27  21731509.400   114199852.13908     -2806.293          49.500    21731514.580    88986919.09608     -2186.750          53.250  
G08  20441736.640   107422049.93208      -676.703          51.500    20441740.820    83705511.17809      -527.316          54.250  
G21  21048497.480   110610600.84607       860.852          44.500    21048498.760    86190083.00206       670.793          37.750  
R24  19503878.980   104296002.41006       261.668          40.250  
R01  19635370.360   104962299.68207      1371.352          45.250    19635378.440    81637385.82206      1066.609          36.500  
R02  22558389.980   120375894.68906      4387.945          38.000  
> 2023 06 27 11 58 30.0000000  0  7
G02  21825330.360   114692885.10807      1596.375          43.250    21825330.340    89371085.16005      1243.914          33.500  
G27  21731562.800   114200132.79708     -2806.449          49.500    21731567.980    88987137.78908     -2186.840          52.500  
G08  20441749.520   107422117.60908      -676.805          51.500    20441753.700    83705563.91309      -527.395          54.250  
G21  21048481.100   110610514.74307       860.852          44.500    21048482.440    86190015.90806       670.793          38.000  
R24  19503874.020   104295976.30706       261.187          40.250  
R01  19635344.700   104962162.55007      1371.352          45.250    19635352.780    81637279.16506      1066.609          36.750  
R02  22558307.640   120375455.88606      4387.859          38.000  
> 2023 06 27 11 58 30.1000000  0  7
G02  21825299.980   114692725.53307      1596.148          43.000    21825299.980    89370960.81705      1243.738          33.500  
G27  21731616.200   114200413.43708     -2806.383          49.750    21731621.380    88987356.47208     -2186.789          52.500  
G08  20441762.400   107422185.28008      -676.582          51.500    20441766.580    83705616.64209      -527.223          54.250  
G21  21048464.700   110610428.61307       861.191          44.750    21048466.040    86189948.79406       671.059          38.000  
R24  19503869.120   104295950.19806       261.398          39.250  
R01  19635319.060   104962025.38807      1371.633          45.250    19635327.120    81637172.48606      1066.828          36.750  
R02  22558225.400   120375017.07206      4388.176          41.250  
> 2023 06 27 11 58 30.2000000  0  9
G01  22079066.840   116026277.66006      2587.691          39.500  
G14  24288147.840   127635091.46906      1845.371          40.750    24288145.640    99455894.86204      1437.953          26.250  
G02  21825269.600   114692565.81207      1597.113          43.000    21825269.580    89370836.35805      1244.488          34.000  
G27  21731669.600   114200694.05608     -2806.289          49.750    21731674.780    88987575.13408     -2186.715          53.250  
G08  20441775.280   107422252.92608      -676.465          51.500    20441779.440    83705669.35309      -527.133          54.250  
G21  21048448.320   110610342.46907       861.629          44.750    21048449.660    86189881.66706       671.398          36.750  
R24  19503864.180   104295924.00906       261.516          39.250  
R01  19635293.400   104961888.23907      1371.477          45.250    19635301.460    81637065.81706      1066.707          36.500  
R02  22558143.160   120374578.30906      4387.441          41.250  
> 2023 06 27 11 58 30.3000000  0 10
G01  22079017.600   116026018.79906      2588.660          39.500  
G14  24288112.840   127634907.47906      1840.754          40.750    24288110.620    99455751.48705      1434.355          29.750  
G02  21825239.220   114692406.19507      1596.590          43.250    21825239.200    89370711.98405      1244.082          34.000  
G27  21731723.000   114200974.69008     -2806.488          49.750    21731728.180    88987793.81208     -2186.871          53.250  
G32  22543494.120   118466862.01607      1501.426          45.500  
G08  20441788.160   107422320.57408      -676.414          51.500    20441792.320    83705722.06609      -527.090          54.250  
G21  21048431.920   110610256.30307       861.363          44.250    21048433.260    86189814.52606       671.191          36.750  
R24  19503859.280   104295897.81906       261.816          41.000  
R01  19635267.760   104961751.08507      1371.430          44.500    19635275.780    81636959.14306      1066.676          36.750  
R02  22558060.940   120374139.56506      4387.813          40.750  
> 2023 06 27 11 58 30.4000000  0 10
G01  22078968.360   116025760.04406      2588.309          39.500  
G14  24288077.780   127634722.88306      1845.582          40.750    24288075.480    99455607.64005      1438.117          29.750  
G02  21825208.840   114692246.51607      1596.328          43.250    21825208.820    89370587.55605      1243.875          34.000  
G27  21731776.400   114201255.32808     -2806.430          49.750    21731781.600    88988012.49008     -2186.824          53.250  
G32  22543465.560   118466711.88007      1501.363          45.500  
G08  20441801.040   107422388.26408      -676.895          51.500    20441805.200    83705774.80909      -527.465          54.250  
G21  21048415.540   110610170.22507       861.238          44.250    21048416.880    86189747.44906       671.094          36.750  
R24  19503854.460   104295871.67306       261.445          41.000  
R01  19635242.100   104961613.95807      1371.113          44.500    19635250.120    81636852.49106      1066.430          37.000  
R02  22557978.740   120373700.76206      4387.832          40.750  
> 2023 06 27 11 58 30.5000000  0 10
G01  22078919.160   116025501.30706      2586.949          39.250  
G14  24288042.620   127634538.19706      1847.203          38.750    24288043.280    99455463.73505      1439.379          29.500  
G02  21825178.460   114692086.87307      1596.613          43.250    21825178.160    89370463.15905      1244.102          33.750  
G27  21731829.820   114201535.98308     -2806.668          49.750    21731835.000    88988231.18509     -2187.012          53.500  
G32  22543436.980   118466561.72307      1501.559          45.500  
G08  20441813.920   107422455.95708      -677.055          51.500    20441818.080    83705827.55709      -527.590          54.250  
G21  21048399.160   110610084.12107       860.664          44.250    21048400.440    86189680.35706       670.648          37.000  
R24  19503849.560   104295845.50506       262.211          41.000  
R01  19635216.460   104961476.83307      1371.160          44.500    19635224.480    81636745.83806      1066.465          37.000  
R02  22557896.520   120373261.99106      4387.531          40.750  
> 2023 06 27 11 58 30.6000000  0 10
G01  22078869.880   116025242.40706      2588.910          39.250    22078876.180    90409307.05318      2017.332          50.000  
G14  24288007.380   127634353.79806      1845.910          38.750    24288008.180    99455320.06205      1438.371          29.500  
G02  21825148.100   114691927.29307      1595.605          43.750    21825147.800    89370338.81605      1243.316          33.750  
G27  21731883.220   114201816.62908     -2806.391          49.250    21731888.400    88988449.87209     -2186.793          53.500  
G32  22543408.400   118466411.59707      1501.492          46.750  
G08  20441826.800   107422523.64108      -676.840          51.500    20441830.960    83705880.29609      -527.422          54.250  
G21  21048382.760   110609997.96007       861.508          43.750    21048384.040    86189613.21806       671.305          37.000  
R24  19503844.680   104295819.33006       261.609          39.250  
R01  19635190.800   104961339.71107      1371.230          44.750    19635198.820    81636639.19206      1066.434          37.500  
R02  22557814.320   120372823.16906      4388.199          40.500  
> 2023 06 27 11 58 30.7000000  0 10
G01  22078820.680   116024983.70206      2587.770          37.500    22078826.940    90409105.46408      2016.445          47.500  
G14  24287972.240   127634169.17806      1846.316          38.750    24287973.060    99455176.21405      1438.688          29.500  
G02  21825117.700   114691767.62207      1596.602          43.750    21825117.400    89370214.39805      1244.004          34.250  
G27  21731936.620   114202097.26908     -2806.402          49.250    21731941.800    88988668.55409     -2186.805          53.500  
G32  22543379.820   118466261.48407      1501.070          46.750  
G08  20441839.680   107422591.33908      -677.125          51.500    20441843.840    83705933.04609      -527.645          54.250  
G21  21048366.380   110609911.91107       860.625          43.750    21048367.680    86189546.16506       670.617          36.500  
R24  19503839.780   104295793.18106       260.941          39.250  
R01  19635165.180   104961202.59407      1371.207          44.750    19635173.180    81636532.54806      1066.504          38.000  
R02  22557732.100   120372384.37706      4387.988          40.500  
> 2023 06 27 11 58 30.8000000  0 11
G01  22078771.440   116024724.88906      2587.848          37.500    22078777.700    90408903.79408      2016.504          47.500  
G14  24287937.360   127633984.83206      1843.121          38.750    24287938.000    99455032.57804      1436.199          25.250  
G02  21825087.340   114691608.01607      1596.336          45.000    21825087.040    89370090.03205      1243.887          34.250  
G27  21731990.020   114202377.93508     -2806.582          48.750    21731995.220    88988887.25909     -2186.941          53.500  
G32  22543351.260   118466111.34508      1501.473          48.000  
G08  20441852.560   107422659.03708      -677.004          51.750    20441856.720    83705985.79909      -527.551          54.250  
G10  22167474.020   116490859.49106     -2513.617          37.250    22167476.080    90772112.19407     -1958.664          45.500  
G21  21048350.000   110609825.79407       860.816          44.000    21048351.280    86189479.06106       670.766          36.500  
R24  19503834.800   104295767.06106       261.582          39.500  
R01  19635139.540   104961065.49907      1370.988          44.750    19635147.500    81636425.92006      1066.332          37.750  
R02  22557649.880   120371945.63806      4387.371          41.000  
> 2023 06 27 11 58 30.9000000  0 10
G01  22078722.200   116024466.12606      2587.633          37.500    22078728.460    90408702.16408      2016.336          47.500  
G02  21825056.960   114691448.39407      1596.234          45.000    21825056.660    89369965.65405      1243.809          34.250  
G27  21732043.440   114202658.59608     -2806.707          48.750    21732048.620    88989105.95608     -2187.039          53.000  
G32  22543322.680   118465961.21108      1501.227          48.000  
G08  20441865.440   107422726.73308      -677.027          51.750    20441869.600    83706038.54709      -527.570          54.250  
G10  22167521.840   116491110.81806     -2513.238          37.250    22167523.900    90772308.01307     -1958.367          45.500  
G21  21048333.600   110609739.69107       860.926          44.000    21048334.900    86189411.96906       670.852          36.500  
R24  19503829.920   104295740.95506       261.016          39.500  
R01  19635113.900   104960928.41507      1370.797          44.750    19635121.860    81636319.30106      1066.184          38.500  
R02  22557567.640   120371506.84306      4387.648          41.000  
> 2023 06 27 11 58 31.0000000  0 10
G01  22078672.980   116024207.40206      2586.871          36.750    22078679.300    90408500.56308      2015.742          48.750  
G02  21825026.580   114691288.79607      1595.602          45.000    21825026.200    89369841.29106      1243.316          35.500  
G27  21732096.840   114202939.26708     -2806.574          48.750    21732102.040    88989324.66308     -2186.938          53.000  
G32  22543294.120   118465811.09108      1501.340          49.500  
G08  20441878.340   107422794.47508      -677.336          51.750    20441882.500    83706091.33409      -527.805          54.250  
G10  22167568.400   116491362.16706     -2513.645          37.750    22167571.720    90772503.85107     -1958.684          45.500  
G21  21048317.260   110609653.61307       860.922          44.000    21048318.480    86189344.89606       670.848          37.500  
R24  19503824.900   104295714.88306       260.695          39.750  
R01  19635088.260   104960791.35707      1370.582          44.750    19635096.220    81636212.70506      1066.117          39.000  
R02  22557485.340   120371068.04506      4388.383          41.000  
> 2023 06 27 11 58 31.1000000  0 10
G01  22078623.720   116023948.57006      2588.340          36.750    22078630.040    90408298.87708      2016.887          48.750  
G02  21824996.220   114691129.16107      1596.316          44.500    21824995.820    89369716.90106      1243.875          35.500  
G27  21732150.240   114203219.89108     -2806.301          49.000    21732155.440    88989543.32908     -2186.738          53.000  
G32  22543265.540   118465660.93908      1501.422          49.500    22543266.340    92310907.05818      1169.938          50.500  
G08  20441891.220   107422862.17308      -677.070          51.750    20441895.380    83706144.08709      -527.598          54.250  
G10  22167616.220   116491613.49706     -2512.813          37.750    22167621.720    90772699.67207     -1958.035          45.500  
G21  21048300.880   110609567.53607       860.590          43.750    21048302.100    86189277.82506       670.590          37.500  
R24  19503820.000   104295688.74006       261.461          39.750  
R01  19635062.620   104960654.28807      1370.504          44.750    19635070.580    81636106.09806      1065.957          39.250  
R02  22557403.120   120370629.28206      4387.520          41.000  
> 2023 06 27 11 58 31.2000000  0 10
G01  22078574.500   116023689.86706      2587.625          35.750    22078580.820    90408097.28808      2016.332          48.750  
G02  21824965.840   114690969.57907      1595.926          44.500    21824965.460    89369592.55505      1243.570          35.000  
G27  21732203.660   114203500.52608     -2806.434          49.000    21732208.840    88989762.00808     -2186.828          51.000  
G32  22543236.980   118465510.80508      1501.305          49.500    22543237.780    92310790.06808      1169.848          51.000  
G08  20441904.120   107422929.87408      -676.957          51.750    20441908.260    83706196.83909      -527.512          54.000  
G10  22167664.460   116491864.82406     -2513.508          37.750    22167669.540    90772895.49107     -1958.578          45.500  
G21  21048284.460   110609481.39507       861.422          43.750    21048285.720    86189210.69806       671.238          36.250  
R24  19503815.200   104295662.63606       260.797          39.750  
R01  19635036.980   104960517.19807      1370.621          44.750    19635044.940    81635999.47706      1066.047          39.000  
R02  22557320.860   120370190.46306      4388.270          41.000  
> 2023 06 27 11 58 31.3000000  0 10
G01  22078525.220   116023431.00706      2588.523          35.750    22078531.560    90407895.58108      2017.031          48.750  
G02  21824935.480   114690809.94707      1596.133          44.000    21824935.080    89369468.16805      1243.730          35.000  
G27  21732257.060   114203781.18208     -2806.496          48.750    21732262.240    88989980.69808     -2186.875          51.000  
G32  22543208.420   118465360.67908      1501.137          50.000    22543209.200    92310673.08308      1169.719          51.000  
G08  20441917.000   107422997.60108      -677.270          51.750    20441921.160    83706249.61309      -527.754          54.000  
G10  22167712.280   116492116.15406     -2513.723          35.500    22167717.360    90773091.31407     -1958.746          47.000  
G21  21048268.080   110609395.35407       860.641          43.000    21048269.340    86189143.65806       670.629          36.250  
R24  19503810.320   104295636.51406       261.594          38.500  
R01  19635011.380   104960380.13507      1370.750          44.250    19635019.300    81635892.87606      1066.148          38.000  
R02  22557238.640   120369751.68706      4387.770          40.750  
> 2023 06 27 11 58 31.4000000  0 10
G01  22078476.000   116023172.39606      2586.434          37.000    22078482.340    90407694.06608      2015.402          49.750  
G02  21824905.100   114690650.35907      1595.992          44.000    21824904.720    89369343.81606      1243.621          35.750  
G27  21732310.460   114204061.86408     -2806.875          48.750    21732315.660    88990199.41208     -2187.172          50.750  
G32  22543179.860   118465210.60308      1500.633          50.000    22543180.640    92310556.13508      1169.324          50.250  
G08  20441929.900   107423065.33808      -677.367          51.750    20441934.040    83706302.39609      -527.832          54.000  
G10  22167758.480   116492367.64706     -2514.707          35.500    22167765.220    90773287.26407     -1959.512          47.000  
G21  21048251.700   110609309.29307       860.566          43.000    21048252.960    86189076.59406       670.570          39.750  
R24  19503805.560   104295610.46106       260.270          38.500  
R01  19634985.760   104960243.10407      1370.281          44.250    19634993.660    81635786.29406      1065.781          37.500  
R02  22557156.400   120369312.93706      4387.152          40.750  
> 2023 06 27 11 58 31.5000000  0 10
G01  22078426.740   116022913.71706      2584.828          37.000    22078433.020    90407492.50008      2014.152          49.750  
G02  21824874.740   114690490.70607      1596.492          44.500    21824874.380    89369219.40906      1244.012          35.750  
G27  21732363.880   114204342.51108     -2806.523          48.250    21732369.060    88990418.09808     -2186.898          50.750  
G32  22543151.280   118465060.47208      1501.176          48.500    22543155.000    92310439.15108      1169.746          50.250  
G08  20441942.780   107423133.04708      -677.199          51.500    20441946.920    83706355.15309      -527.699          54.000  
G10  22167806.280   116492618.83205     -2512.672          35.000    22167813.000    90773482.97207     -1957.926          46.250  
G21  21048235.300   110609223.14207       861.066          42.500    21048236.580    86189009.46406       670.957          39.750  
R24  19503800.680   104295584.30906       261.566          38.500  
R01  19634960.120   104960106.02207      1370.613          43.750    19634968.020    81635679.67506      1066.039          36.500  
R02  22557074.200   120368874.21706      4387.164          39.750  
> 2023 06 27 11 58 31.6000000  0 10
G01  22078377.460   116022654.75706      2588.426          37.000    22078383.740    90407290.71408      2016.957          49.750  
G02  21824844.380   114690331.13707      1595.969          44.500    21824844.020    89369095.07206      1243.605          35.750  
G27  21732417.300   114204623.20608     -2806.746          48.250    21732422.480    88990636.82208     -2187.070          50.750  
G32  22543122.720   118464910.38308      1501.113          48.500    22543126.440    92310322.19708      1169.699          50.250  
G08  20441955.660   107423200.79508      -677.480          51.500    20441959.820    83706407.94409      -527.918          54.000  
G10  22167853.440   116492870.25705     -2513.590          35.000    22167861.080    90773678.87507     -1958.641          46.250  
G21  21048218.940   110609137.13207       860.652          42.500    21048220.220    86188942.44006       670.633          39.750  
R24  19503795.740   104295558.21606       260.977          38.500  
R01  19634934.480   104959969.00207      1370.203          43.750    19634942.380    81635573.10206      1065.723          36.000  
R02  22556992.040   120368435.48606      4387.496          39.750  
> 2023 06 27 11 58 31.7000000  0 10
G01  22078328.180   116022396.15105      2586.090          35.000    22078334.520    90407089.21007      2015.137          47.000  
G02  21824813.980   114690171.53107      1595.910          44.500    21824813.640    89368970.70304      1243.559          27.750  
G27  21732470.700   114204903.88808     -2806.883          48.250    21732475.900    88990855.53709     -2187.250          54.000  
G32  22543094.140   118464760.27508      1500.992          48.500    22543097.880    92310205.23008      1169.605          51.500  
G08  20441968.560   107423268.55108      -677.687          51.250    20441972.720    83706460.74109      -528.078          53.750  
G10  22167901.240   116493121.48706     -2511.957          37.000    22167908.880    90773874.62907     -1957.367          46.250  
G21  21048202.560   110609051.04207       860.676          42.500    21048203.840    86188875.35406       670.652          37.750  
R24  19503790.860   104295532.10506       261.371          38.500  
R01  19634908.940   104959831.96507      1370.324          43.750    19634916.740    81635466.52006      1065.816          35.500  
R02  22556909.820   120367996.72506      4387.207          39.750  
> 2023 06 27 11 58 31.8000000  0 10
G01  22078278.960   116022137.51405      2585.832          35.000    22078285.320    90406887.67607      2014.934          47.000  
G02  21824783.620   114690011.96707      1595.938          44.500    21824783.280    89368846.36604      1243.578          27.750  
G27  21732524.100   114205184.54908     -2806.613          48.750    21732529.300    88991074.23409     -2187.004          54.000  
G32  22543065.580   118464610.17308      1500.996          48.750    22543069.320    92310088.26708      1169.605          51.500  
G08  20441981.460   107423336.33808      -677.953          51.250    20441985.620    83706513.56209      -528.285          53.750  
G10  22167950.120   116493372.80406     -2512.219          37.000    22167956.700    90774070.45407     -1957.574          47.250  
G21  21048186.200   110608965.01706       860.535          41.250    21048187.460    86188808.32106       670.543          37.750  
R24  19503786.000   104295506.03906       260.727          40.750  
R01  19634883.300   104959694.93407      1370.172          45.000    19634891.160    81635359.94005      1065.691          35.250  
R02  22556827.580   120367557.92506      4387.797          40.000  
> 2023 06 27 11 58 31.9000000  0 10
G01  22078229.820   116021878.73806      2587.055          36.250    22078236.060    90406686.03708      2015.887          48.000  
G02  21824753.240   114689852.44507      1595.016          44.500    21824752.920    89368722.06505      1242.902          30.250  
G27  21732577.520   114205465.22608     -2806.789          48.750    21732582.720    88991292.94309     -2187.105          54.500  
G32  22543037.020   118464460.09208      1500.773          48.750    22543040.760    92309971.31908      1169.434          51.500  
G08  20441994.360   107423404.14108      -678.086          51.250    20441998.520    83706566.39609      -528.391          54.000  
G10  22167997.940   116493624.13906     -2512.742          37.000    22168004.540    90774266.28907     -1957.980          47.250  
G21  21048169.820   110608878.95506       860.320          41.250    21048171.080    86188741.25806       670.375          37.000  
R24  19503781.100   104295479.88406       261.293          40.750  
R01  19634857.680   104959557.93507      1369.781          45.000    19634865.520    81635253.38106      1065.391          36.250  
R02  22556745.340   120367119.16406      4387.703          40.000  
> 2023 06 27 11 58 32.0000000  0 10
G01  22078180.600   116021620.01706      2587.922          36.250    22078186.540    90406484.43808      2016.563          48.000  
G02  21824722.880   114689692.86307      1595.531          44.250    21824722.840    89368597.71505      1243.266          30.250  
G27  21732630.940   114205745.96008     -2807.219          49.750    21732636.140    88991511.69509     -2187.441          54.500  
G32  22543008.480   118464310.08208      1500.137          48.750    22543013.040    92309854.43008      1168.938          51.500  
G08  20442007.280   107423471.97308      -678.254          51.000    20442011.420    83706619.25209      -528.520          54.000  
G10  22168046.160   116493875.48206     -2513.844          37.250    22168052.360    90774462.13307     -1958.840          46.250  
G21  21048153.440   110608792.97807       860.398          42.500    21048154.820    86188674.26106       670.437          37.000  
R24  19503776.340   104295453.85006       260.555          38.500  
R01  19634832.080   104959421.01107      1369.363          45.500    19634839.920    81635146.88206      1065.063          36.750  
R02  22556663.080   120366680.47306      4386.613          40.000  
> 2023 06 27 11 58 32.1000000  0 10
G01  22078131.320   116021361.38006      2586.840          36.250    22078137.320    90406282.90008      2015.719          48.000  
G02  21824692.520   114689533.33107      1595.664          44.250    21824692.480    89368473.40405      1243.371          30.250  
G27  21732684.360   114206026.69008     -2807.555          49.750    21732689.560    88991730.44308     -2187.703          50.750  
G32  22542979.920   118464160.05808      1500.109          48.750    22542984.480    92309737.52408      1168.918          51.500  
G08  20442020.180   107423539.80508      -678.559          51.000    20442024.320    83706672.10809      -528.758          54.000  
G10  22168094.020   116494126.94606     -2515.020          37.250    22168099.760    90774658.07507     -1959.754          46.250  
G21  21048137.060   110608706.93407       860.051          42.500    21048138.440    86188607.21606       670.164          37.000  
R24  19503771.480   104295427.82406       259.996          38.500  
R01  19634806.480   104959284.05807      1369.309          45.500    19634814.300    81635040.36106      1065.023          37.750  
R02  22556580.880   120366241.76606      4386.840          40.000  
> 2023 06 27 11 58 32.2000000  0 10
G01  22078082.080   116021102.64006      2586.871          35.750    22078088.100    90406081.28707      2015.742          43.000  
G02  21824662.180   114689373.86907      1594.262          44.250    21824662.140    89368349.15105      1242.309          31.500  
G27  21732737.800   114206307.45808     -2807.914          49.750    21732742.980    88991949.22408     -2187.984          50.750  
G32  22542951.380   118464010.06908      1499.742          48.000    22542955.940    92309620.64808      1168.629          49.750  
G08  20442033.100   107423607.68208      -678.879          50.250    20442037.240    83706725.00109      -529.008          53.750  
G10  22168142.200   116494378.23406     -2513.027          36.250    22168147.580    90774853.88807     -1958.203          45.250  
G21  21048120.720   110608620.95107       859.797          42.500    21048122.080    86188540.21606       669.969          40.000  
R24  19503766.620   104295401.80106       259.918          38.500  
R01  19634780.860   104959147.12007      1369.066          45.500    19634788.680    81634933.85206      1064.832          38.000  
R02  22556498.640   120365803.12906      4386.051          39.500  
> 2023 06 27 11 58 32.3000000  0  9
G01  22078032.880   116020844.08706      2585.957          35.750    22078038.900    90405879.81507      2015.031          43.000  
G02  21824631.820   114689214.26107      1596.027          44.250    21824631.760    89368224.78205      1243.551          31.500  
G27  21732791.240   114206588.27708     -2808.410          49.000    21732796.420    88992168.04108     -2188.371          50.750  
G32  22542922.840   118463860.07508      1499.828          48.000    22542927.400    92309503.76708      1168.695          49.750  
G08  20442046.020   107423675.52908      -678.496          50.250    20442050.160    83706777.86909      -528.711          53.750  
G21  21048104.340   110608534.95007       859.969          44.250    21048105.720    86188473.20206       670.102          40.000  
R24  19503761.760   104295375.79606       260.301          38.500  
R01  19634755.240   104959010.26307      1368.668          44.500    19634763.080    81634827.40706      1064.523          39.000  
R02  22556416.440   120365364.48906      4386.652          39.500  
> 2023 06 27 11 58 32.4000000  0  9
G01  22077983.660   116020585.44505      2586.129          34.000    22077989.680    90405678.27807      2015.164          45.000  
G02  21824601.480   114689054.77807      1595.023          44.250    21824601.420    89368100.51205      1242.871          31.500  
G27  21732844.660   114206869.09808     -2808.242          49.000    21732849.860    88992386.86308     -2188.242          50.000  
G32  22542894.300   118463710.09608      1499.691          48.000    22542898.860    92309386.90008      1168.590          51.500  
G08  20442058.920   107423743.39808      -678.699          49.500    20442063.080    83706830.75209      -528.867          53.750  
G21  21048087.980   110608448.96207       860.023          44.250    21048089.340    86188406.19906       670.145          38.000  
R24  19503756.920   104295349.74106       260.488          38.500  
R01  19634729.620   104958873.40507      1368.484          44.500    19634737.460    81634720.96006      1064.379          39.750  
R02  22556334.240   120364925.81906      4386.867          39.500  
> 2023 06 27 11 58 32.5000000  0  9
G01  22077934.460   116020326.80205      2585.871          34.000    22077940.440    90405476.74007      2014.965          45.000  
G02  21824571.120   114688895.22507      1595.609          44.750    21824571.300    89367976.18505      1243.328          31.500  
G27  21732898.100   114207149.88007     -2807.742          46.250    21732903.300    88992605.65408     -2187.848          50.000  
G32  22542865.760   118463560.09908      1499.906          48.000    22542870.780    92309270.01908      1168.758          51.500  
G08  20442071.840   107423811.27808      -678.844          49.500    20442075.980    83706883.64909      -528.977          53.750  
G21  21048071.620   110608362.92707       860.398          44.500    21048072.980    86188339.15606       670.437          38.000  
R24  19503752.040   104295323.70106       260.875          39.250  
R01  19634703.980   104958736.51307      1368.914          44.250    19634711.860    81634614.48906      1064.715          40.250  
R02  22556252.020   120364487.16006      4386.973          38.000  
> 2023 06 27 11 58 32.6000000  0  9
G01  22077885.240   116020068.11305      2587.320          34.250    22077891.220    90405275.16407      2016.094          46.250  
G02  21824540.780   114688735.75807      1594.836          44.750    21824540.960    89367851.92306      1242.727          36.500  
G27  21732951.520   114207430.64907     -2807.828          46.250    21732956.720    88992824.43509     -2187.914          53.750  
G32  22542837.220   118463410.13608      1499.676          48.000    22542842.240    92309153.16308      1168.578          50.250  
G08  20442084.760   107423879.12508      -678.633          49.500    20442088.900    83706936.51709      -528.812          54.500  
G21  21048055.260   110608277.00107       859.191          44.500    21048056.620    86188272.19906       669.496          39.000  
R24  19503747.200   104295297.84606       258.992          39.250  
R01  19634678.380   104958599.64807      1368.512          44.250    19634686.260    81634508.03806      1064.402          40.500  
R02  22556169.900   120364048.53606      4385.559          38.000  
> 2023 06 27 11 58 32.7000000  0  9
G01  22077836.020   116019809.52005      2587.691          34.250    22077842.000    90405073.66707      2016.383          46.250  
G02  21824510.460   114688576.23607      1595.098          44.750    21824510.600    89367727.62306      1242.930          36.500  
G27  21733004.960   114207711.47008     -2808.125          48.000    21733010.180    88993043.25909     -2188.145          53.750  
G32  22542808.680   118463260.18908      1499.516          47.500    22542813.720    92309036.32108      1168.453          50.250  
G08  20442097.680   107423947.02008      -678.887          49.500    20442101.820    83706989.42309      -529.012          54.500  
G21  21048038.880   110608190.99207       860.180          43.750    21048040.260    86188205.17706       670.266          39.000  
R24  19503742.340   104295271.86806       259.223          37.750  
R01  19634652.760   104958462.79007      1368.563          45.250    19634660.660    81634401.59506      1064.441          40.500  
R02  22556087.760   120363610.22405      4381.922          33.250  
> 2023 06 27 11 58 32.8000000  0  9
G01  22077786.800   116019550.88905      2586.277          34.250    22077792.800    90404872.13807      2015.281          46.250  
G02  21824480.100   114688416.75107      1594.723          44.750    21824480.260    89367603.34906      1242.637          36.500  
G27  21733058.400   114207992.27808     -2808.250          48.000    21733063.600    88993262.07209     -2188.242          53.750  
G32  22542780.140   118463110.21508      1499.535          47.500    22542785.180    92308919.46108      1168.469          50.250  
G08  20442110.600   107424014.91808      -679.059          49.500    20442114.740    83707042.33009      -529.145          54.500  
G21  21048022.520   110608105.03607       859.336          43.750    21048023.900    86188138.19606       669.609          39.000  
R24  19503737.420   104295245.87706       259.820          37.750  
R01  19634627.160   104958325.92807      1368.492          45.250    19634635.060    81634295.14706      1064.379          40.250  
R02  22556005.540   120363171.54305      4386.559          33.250  
> 2023 06 27 11 58 32.9000000  0  9
G01  22077737.600   116019292.19106      2587.145          38.500    22077743.560    90404670.55807      2015.957          44.750  
G02  21824449.760   114688257.20807      1595.180          44.750    21824449.900    89367479.02905      1242.992          32.500  
G27  21733111.820   114208273.09108     -2808.285          48.000    21733117.040    88993480.89009     -2188.270          54.750  
G32  22542751.600   118462960.28708      1499.172          47.500    22542756.640    92308802.63107      1168.188          47.000  
G08  20442123.520   107424082.81308      -679.145          49.000    20442127.660    83707095.23509      -529.211          53.500  
G21  21048006.160   110608019.06907       859.359          43.750    21048007.540    86188071.21106       669.625          37.250  
R24  19503732.560   104295219.91006       259.414          37.750  
R01  19634601.540   104958189.05207      1368.633          45.250    19634609.440    81634188.68106      1064.488          39.250  
R02  22555923.340   120362732.95605      4387.324          33.250  
> 2023 06 27 11 58 33.0000000  0  9
G01  22077688.400   116019033.61706      2585.879          38.500    22077694.200    90404469.07207      2014.969          44.750  
G02  21824419.400   114688097.71007      1595.094          43.750    21824419.440    89367354.74305      1242.922          32.500  
G27  21733165.260   114208553.91308     -2808.285          49.250    21733170.480    88993699.71609     -2188.270          54.750  
G32  22542723.080   118462810.37607      1498.984          45.750    22542728.160    92308685.81807      1168.039          47.000  
G08  20442136.440   107424150.76108      -679.484          49.000    20442140.600    83707148.18309      -529.477          53.500  
G21  21047989.820   110607933.09407       859.836          42.000    21047991.180    86188004.21506       670.000          37.250  
R24  19503727.620   104295193.95906       259.508          41.250  
R01  19634575.960   104958052.23207      1368.090          46.000    19634583.840    81634082.26206      1064.066          37.750  
R02  22555840.980   120362294.36105      4386.273          33.250  
> 2023 06 27 11 58 33.1000000  0  9
G01  22077639.160   116018774.96906      2586.234          39.250    22077644.980    90404267.52807      2015.246          43.250  
G02  21824389.080   114687938.26707      1594.707          43.750    21824389.100    89367230.50205      1242.621          34.500  
G27  21733218.700   114208834.73608     -2808.406          49.250    21733223.920    88993918.53909     -2188.363          54.500  
G32  22542694.560   118462660.46107      1499.113          45.750    22542699.640    92308568.99808      1168.141          47.750  
G08  20442149.380   107424218.72708      -679.719          49.000    20442153.520    83707201.14408      -529.660          52.500  
G21  21047973.460   110607847.18907       859.367          42.000    21047974.840    86187937.27706       669.633          37.750  
R24  19503722.760   104295167.97006       259.664          41.250  
R01  19634550.380   104957915.42807      1367.984          46.000    19634558.260    81633975.85406      1063.984          36.500  
R02  22555758.800   120361855.81705      4385.340          33.250  
> 2023 06 27 11 58 33.2000000  0  9
G01  22077589.980   116018516.42406      2585.379          39.250    22077595.780    90404066.06407      2014.582          43.250  
G02  21824358.720   114687778.79207      1594.137          43.500    21824358.760    89367106.23405      1242.176          34.500  
G27  21733272.160   114209115.59208     -2808.664          49.250    21733277.360    88994137.38809     -2188.566          54.500  
G32  22542666.040   118462510.57607      1498.793          44.750    22542671.120    92308452.20608      1167.891          47.750  
G08  20442162.320   107424286.69508      -679.723          47.500    20442166.460    83707254.10608      -529.660          52.500  
G21  21047957.120   110607761.23307       859.004          42.250    21047958.480    86187870.30006       669.352          37.750  
R24  19503718.040   104295142.04006       259.410          41.000  
R01  19634524.800   104957778.64507      1367.625          45.250    19634532.660    81633869.46205      1063.703          35.250  
R02  22555676.500   120361417.16905      4385.840          30.500  
> 2023 06 27 11 58 33.3000000  0  9
G01  22077540.780   116018257.79206      2586.445          39.250    22077546.580    90403864.53307      2015.410          43.250  
G02  21824328.380   114687619.26807      1595.398          43.500    21824328.400    89366981.92705      1243.160          34.500  
G27  21733325.600   114209396.43708     -2808.574          49.250    21733330.800    88994356.23209     -2188.496          53.500  
G32  22542637.500   118462360.61607      1499.637          44.750    22542642.580    92308335.34908      1168.547          47.750  
G08  20442175.240   107424354.65608      -679.785          47.500    20442179.400    83707307.06708      -529.711          52.500  
G21  21047940.760   110607675.27407       859.992          42.250    21047942.120    86187803.31806       670.121          37.750  
R24  19503713.180   104295116.08706       259.824          41.000  
R01  19634499.200   104957641.87107      1367.621          45.250    19634507.040    81633763.07505      1063.703          33.250  
R02  22555594.300   120360978.56305      4386.055          30.500  
> 2023 06 27 11 58 33.4000000  0  9
G01  22077491.560   116017999.16906      2586.605          39.000    22077497.360    90403663.00407      2015.535          43.500  
G02  21824298.040   114687459.81707      1594.465          43.500    21824298.060    89366857.68005      1242.434          32.750  
G27  21733379.040   114209677.30508     -2808.664          49.250    21733384.260    88994575.09309     -2188.566          53.500  
G32  22542608.960   118462210.68207      1499.246          44.500    22542614.040    92308218.52008      1168.242          50.500  
G08  20442188.180   107424422.62507      -679.703          47.000    20442192.320    83707360.02908      -529.648          53.250  
G21  21047924.400   110607589.30607       859.551          42.250    21047925.760    86187736.33306       669.777          39.750  
R24  19503708.340   104295090.12706       259.680          39.000  
R01  19634473.620   104957505.08807      1367.625          45.250    19634481.460    81633656.68905      1063.703          32.250  
R02  22555511.980   120360539.99206      4385.910          36.500  
> 2023 06 27 11 58 33.5000000  0  9
G01  22077442.340   116017740.61306      2585.664          39.000    22077448.100    90403461.53407      2014.805          43.500  
G02  21824267.680   114687300.25807      1595.871          44.000    21824267.900    89366733.34405      1243.523          32.750  
G27  21733432.480   114209958.13208     -2808.324          48.500    21733437.700    88994793.91609     -2188.301          53.500  
G32  22542580.460   118462060.77207      1499.141          44.500    22542585.700    92308101.70608      1168.160          50.500  
G08  20442201.100   107424490.54307      -679.137          47.000    20442205.260    83707412.95508      -529.203          53.250  
G21  21047908.040   110607503.33707       859.871          43.000    21047909.420    86187669.34606       670.027          39.750  
R24  19503703.480   104295064.12006       259.852          39.000  
R01  19634447.960   104957368.28707      1368.027          43.500    19634455.860    81633550.28605      1064.016          32.000  
R02  22555429.760   120360101.35206      4386.414          36.500  
> 2023 06 27 11 58 33.6000000  0  9
G01  22077393.120   116017481.88906      2586.672          39.750    22077398.880    90403259.93107      2015.590          43.000  
G02  21824237.320   114687140.76007      1594.941          44.000    21824237.560    89366609.05605      1242.801          31.500  
G27  21733485.920   114210238.96608     -2808.285          48.500    21733491.140    88995012.75008     -2188.270          52.750  
G32  22542551.920   118461910.84807      1498.691          44.500    22542557.160    92307984.88307      1167.813          45.250  
G08  20442214.040   107424558.49608      -679.633          47.750    20442218.180    83707465.90709      -529.590          54.750  
G21  21047891.700   110607417.37507       859.754          43.000    21047893.060    86187602.36006       669.934          40.000  
R24  19503698.640   104295038.09906       260.109          39.000  
R01  19634422.380   104957231.47207      1367.938          43.500    19634430.280    81633443.87705      1063.949          32.250  
R02  22555347.720   120359662.73306      4386.344          36.500  
> 2023 06 27 11 58 33.7000000  0  9
G01  22077343.920   116017223.26006      2586.629          39.750    22077349.660    90403058.40207      2015.555          43.000  
G02  21824206.980   114686981.22507      1595.324          44.250    21824207.200    89366484.73905      1243.098          31.500  
G27  21733539.360   114210519.77708     -2808.027          47.750    21733544.580    88995231.56408     -2188.070          52.750  
G32  22542523.420   118461760.96906      1498.895          40.500    22542528.640    92307868.09407      1167.969          45.250  
G08  20442226.960   107424626.46008      -679.539          47.750    20442231.120    83707518.86609      -529.516          54.750  
G21  21047875.340   110607331.37407       859.426          43.500    21047876.700    86187535.34606       669.680          40.000  
R24  19503693.800   104295012.19606       258.859          39.500  
R01  19634396.820   104957094.76507      1367.344          42.500    19634404.700    81633337.54605      1063.484          33.500  
R02  22555265.520   120359224.17606      4385.793          40.250  
> 2023 06 27 11 58 33.8000000  0  9
G01  22077294.700   116016964.63907      2586.059          41.500    22077300.440    90402856.87907      2015.109          41.750  
G02  21824176.640   114686821.73207      1595.191          44.250    21824176.840    89366360.45605      1243.066          34.750  
G27  21733592.800   114210800.62708     -2808.496          47.750    21733598.020    88995450.40608     -2188.434          50.500  
G32  22542494.900   118461611.06706      1499.250          40.500    22542500.120    92307751.28707      1168.246          42.750  
G08  20442239.880   107424694.37808      -679.199          47.750    20442244.040    83707571.79209      -529.250          54.750  
G21  21047858.980   110607245.34907       860.395          43.500    21047860.320    86187468.31406       670.434          38.250  
R24  19503689.000   104294986.17606       259.742          39.500  
R01  19634371.240   104956958.03007      1367.313          42.500    19634379.100    81633231.19506      1063.465          37.250  
R02  22555183.320   120358785.54306      4386.063          40.250  
> 2023 06 27 11 58 33.9000000  0  9
G01  22077245.500   116016705.94907      2586.715          41.500    22077251.220    90402655.30207      2015.621          41.750  
G02  21824146.260   114686662.23907      1594.789          43.500    21824146.500    89366236.17205      1242.680          34.750  
G27  21733646.240   114211081.42707     -2807.996          47.000    21733651.460    88995669.21108     -2188.047          50.500  
G32  22542466.360   118461461.13507      1499.582          41.500    22542471.580    92307634.45707      1168.504          42.750  
G08  20442252.820   107424762.30508      -679.195          48.500    20442256.960    83707624.72409      -529.246          54.750  
G21  21047842.620   110607159.41607       859.828          43.500    21047843.980    86187401.35306       669.992          38.250  
R24  19503684.140   104294960.17106       260.488          39.500  
R01  19634345.580   104956821.22407      1368.070          42.000    19634353.500    81633124.79806      1063.965          38.500  
R02  22555101.140   120358346.95106      4386.195          40.000  
> 2023 06 27 11 58 34.0000000  0  9
G01  22077196.280   116016447.32007      2586.316          41.500    22077202.020    90402453.77507      2015.313          41.750  
G02  21824115.900   114686502.67007      1595.488          43.500    21824116.140    89366111.83005      1243.227          34.750  
G27  21733699.660   114211362.26907     -2808.457          47.000    21733704.900    88995888.05408     -2188.402          50.500  
G32  22542437.820   118461311.18607      1499.367          41.500    22542442.580    92307517.61507      1168.340          42.750  
G08  20442265.740   107424830.25008      -679.305          48.500    20442269.900    83707677.66609      -529.332          54.750  
G21  21047826.260   110607073.36407       859.500          43.500    21047827.640    86187334.30506       669.742          38.250  
R24  19503679.260   104294934.24106       259.586          39.500  
R01  19634320.000   104956684.47107      1367.617          42.000    19634327.920    81633018.43706      1063.703          39.500  
R02  22555018.860   120357908.31106      4386.258          40.000  
> 2023 06 27 11 58 34.1000000  0  9
G01  22077147.040   116016188.65406      2586.227          40.750    22077152.800    90402252.21907      2015.242          41.500  
G02  21824085.540   114686343.16107      1595.754          43.500    21824085.800    89365987.53805      1243.563          32.250  
G27  21733753.120   114211643.11707     -2808.578          47.000    21733758.340    88996106.89408     -2188.500          50.000  
G32  22542409.280   118461161.25107      1499.293          41.500    22542414.040    92307400.79408      1168.281          49.000  
G08  20442278.680   107424898.17908      -679.242          49.250    20442282.840    83707730.59709      -529.285          54.750  
G21  21047809.900   110606987.44507       860.637          43.500    21047811.300    86187267.35606       670.625          37.750  
R24  19503674.400   104294908.26906       259.684          39.500  
R01  19634294.400   104956547.68807      1367.852          42.000    19634302.340    81632912.05506      1063.883          40.000  
R02  22554936.660   120357469.73206      4386.375          40.000  
> 2023 06 27 11 58 34.2000000  0  9
G01  22077097.820   116015929.98306      2586.789          40.750    22077103.580    90402050.65907      2015.680          41.500  
G02  21824055.180   114686183.62607      1595.289          44.250    21824055.440    89365863.22305      1243.055          32.250  
G27  21733806.560   114211923.95107     -2808.332          47.000    21733811.800    88996325.72808     -2188.309          50.000  
G32  22542380.760   118461011.37807      1498.367          42.000    22542385.520    92307284.01308      1167.559          49.000  
G08  20442291.600   107424966.10808      -679.387          49.250    20442295.740    83707783.53109      -529.395          54.750  
G21  21047793.560   110606901.45407       859.348          42.000    21047794.920    86187200.35206       669.621          37.750  
R24  19503669.560   104294882.29606       259.426          39.750  
R01  19634268.800   104956410.89807      1367.727          44.500    19634276.760    81632805.66606      1063.789          40.500  
R02  22554854.460   120357030.95006      4387.184          38.000  
> 2023 06 27 11 58 34.3000000  0  9
G01  22077048.560   116015671.22206      2587.398          40.000    22077054.340    90401849.03007      2016.156          44.000  
G02  21824024.820   114686024.07307      1595.285          44.250    21824025.060    89365738.89706      1243.066          35.500  
G27  21733860.000   114212204.78507     -2808.406          47.000    21733865.240    88996544.56008     -2188.363          50.500  
G32  22542352.240   118460861.60107      1498.051          42.000    22542357.020    92307167.31206      1167.313          40.250  
G08  20442304.520   107425034.04508      -679.387          49.250    20442308.680    83707836.46509      -529.395          54.000  
G21  21047777.180   110606815.45507       860.098          42.000    21047778.560    86187133.34206       670.207          38.500  
R24  19503664.700   104294856.31306       259.621          39.750  
R01  19634243.200   104956274.12307      1367.668          44.500    19634251.160    81632699.29006      1063.742          40.750  
R02  22554772.260   120356592.31806      4387.332          38.000  
> 2023 06 27 11 58 34.4000000  0  9
G01  22076999.320   116015412.54806      2587.945          40.000    22077005.120    90401647.46607      2016.582          44.000  
G02  21823994.460   114685864.48007      1596.016          44.000    21823994.700    89365614.53706      1243.637          35.500  
G27  21733913.440   114212485.59307     -2808.238          46.500    21733918.660    88996763.37108     -2188.234          50.500  
G32  22542323.720   118460711.73606      1498.293          35.500    22542328.520    92307050.54006      1167.500          40.250  
G08  20442317.460   107425101.95608      -679.059          49.250    20442321.600    83707889.38309      -529.141          54.000  
G21  21047760.820   110606729.47507       860.113          42.500    21047762.200    86187066.34906       670.219          38.500  
R24  19503659.840   104294830.27606       260.312          40.500  
R01  19634217.620   104956137.35907      1367.715          46.500    19634225.580    81632592.91606      1063.777          41.000  
R02  22554690.040   120356153.66205      4386.414          33.750  
> 2023 06 27 11 58 34.5000000  0  9
G01  22076950.100   116015153.91106      2586.785          40.000    22076955.680    90401445.93207      2015.676          44.000  
G02  21823964.100   114685704.92707      1595.648          44.000    21823964.300    89365490.21206      1243.352          35.500  
G27  21733966.880   114212766.42507     -2808.164          46.500    21733972.100    88996982.20308     -2188.176          50.500  
G32  22542295.160   118460561.74706      1499.824          35.500    22542300.720    92306933.67406      1168.695          40.250  
G08  20442330.380   107425169.88008      -679.223          49.250    20442334.540    83707942.31109      -529.270          54.000  
G21  21047744.440   110606643.42107       860.383          42.500    21047745.840    86186999.29206       670.434          38.500  
R24  19503654.960   104294804.25806       259.996          40.500  
R01  19634192.000   104956000.59007      1367.723          46.500    19634199.980    81632486.54006      1063.883          41.250  
R02  22554607.840   120355714.98905      4386.563          33.750  
> 2023 06 27 11 58 34.6000000  0  9
G01  22076900.840   116014895.09506      2587.988          39.250    22076906.420    90401244.25107      2016.613          42.000  
G02  21823933.720   114685545.33407      1595.762          44.000    21823933.940    89365365.85205      1243.438          33.750  
G27  21734020.300   114213047.22507     -2807.969          46.500    21734025.540    88997201.01108     -2188.023          50.500  
G32  22542266.620   118460411.80506      1499.695          38.250    22542272.180    92306816.84006      1168.594          40.250  
G08  20442343.300   107425237.80908      -679.289          49.500    20442347.460    83707995.24009      -529.320          54.250  
G21  21047728.080   110606557.42007       860.285          42.500    21047729.480    86186932.28206       670.355          38.250  
R24  19503650.080   104294778.24506       260.422          40.250  
R01  19634166.420   104955863.81807      1367.660          46.500    19634174.400    81632380.16006      1063.734          41.250  
R02  22554525.740   120355276.28206      4387.074          39.750  
> 2023 06 27 11 58 34.7000000  0  9
G01  22076851.640   116014636.39806      2587.277          39.250    22076857.200    90401042.66707      2016.059          42.000  
G02  21823903.340   114685385.71207      1596.387          45.000    21823903.560    89365241.47205      1243.926          33.750  
G27  21734073.740   114213328.01207     -2807.797          47.000    21734078.980    88997419.81008     -2187.891          50.500  
G32  22542238.080   118460261.81506      1500.039          38.250    22542243.640    92306699.97506      1168.863          40.250  
G08  20442356.220   107425305.71808      -679.109          49.500    20442360.380    83708048.15809      -529.180          54.250  
G21  21047711.700   110606471.32707       860.648          43.500    21047713.080    86186865.19806       670.641          38.250  
R24  19503645.200   104294752.21906       260.367          40.250  
R01  19634140.800   104955727.02507      1367.941          47.000    19634148.820    81632273.76506      1063.801          40.750  
R02  22554443.540   120354837.64506      4386.102          39.750  
> 2023 06 27 11 58 34.8000000  0  9
G01  22076802.400   116014377.64806      2587.813          39.000    22076807.960    90400841.04107      2016.477          42.500  
G02  21823872.980   114685226.16907      1595.797          45.000    21823873.200    89365117.15005      1243.465          34.250  
G27  21734127.180   114213608.80707     -2807.766          47.000    21734132.420    88997638.61108     -2187.855          50.250  
G32  22542209.540   118460111.81806      1500.449          38.250    22542215.100    92306583.09906      1169.180          41.250  
G08  20442369.140   107425373.61508      -678.937          49.750    20442373.300    83708101.06309      -529.047          54.500  
G21  21047695.320   110606385.28107       860.715          43.500    21047696.720    86186798.15206       670.691          38.000  
R24  19503640.260   104294726.23106       260.406          40.250  
R01  19634115.220   104955590.27707      1367.746          47.000    19634123.240    81632167.40206      1063.797          40.250  
R02  22554361.380   120354398.97206      4386.824          39.750  
> 2023 06 27 11 58 34.9000000  0  9
G01  22076753.200   116014118.99706      2587.371          39.000    22076758.740    90400639.49207      2016.133          42.500  
G02  21823842.600   114685066.55007      1595.660          44.750    21823842.820    89364992.77005      1243.359          34.250  
G27  21734180.620   114213889.60808     -2808.086          48.000    21734185.840    88997857.42108     -2188.113          50.250  
G32  22542181.080   118459961.97905      1499.172          34.250    22542186.580    92306466.34706      1168.188          41.250  
G08  20442382.080   107425441.53708      -679.234          49.750    20442386.220    83708153.98909      -529.277          54.500  
G21  21047678.940   110606299.23207       860.566          43.000    21047680.340    86186731.10306       670.574          38.000  
R24  19503635.400   104294700.22306       259.844          40.000  
R01  19634089.640   104955453.49207      1367.742          47.000    19634097.640    81632061.01106      1063.797          39.500  
R02  22554279.180   120353960.33206      4386.156          40.250  
> 2023 06 27 11 58 35.0000000  0  8
G01  22076703.940   116013860.15506      2588.230          38.750    22076709.280    90400437.79307      2016.766          43.000  
G02  21823812.220   114684906.91807      1596.715          44.750    21823812.500    89364868.37905      1244.184          34.750  
G27  21734234.040   114214170.39508     -2807.789          48.000    21734239.280    88998076.21808     -2187.883          50.250  
G08  20442395.000   107425509.45008      -679.043          49.750    20442399.160    83708206.90409      -529.129          54.250  
G21  21047662.580   110606213.18307       860.457          43.000    21047664.040    86186664.05406       670.488          38.750  
R24  19503630.620   104294674.20806       260.215          40.000  
R01  19634064.060   104955316.73407      1367.711          47.000    19634072.060    81631954.64206      1063.770          39.000  
R02  22554196.940   120353521.66206      4386.934          40.250  
> 2023 06 27 11 58 35.1000000  0  8
G01  22076654.760   116013601.47406      2588.012          38.750    22076660.040    90400236.21807      2016.594          43.000  
G02  21823781.860   114684747.32807      1595.930          44.500    21823782.140    89364744.02105      1243.570          34.750  
G27  21734287.480   114214451.16308     -2807.660          48.250    21734292.700    88998294.99808     -2187.785          50.250  
G08  20442407.920   107425577.32208      -678.719          49.750    20442412.080    83708259.79109      -528.875          54.250  
G21  21047646.200   110606127.09507       860.734          42.750    21047647.660    86186596.97506       670.707          38.750  
R24  19503625.760   104294648.15506       260.617          39.250  
R01  19634038.480   104955179.96407      1367.727          46.750    19634046.480    81631848.26106      1063.785          38.250  
R02  22554114.720   120353082.95306      4386.855          40.000  
> 2023 06 27 11 58 35.2000000  0  8
G01  22076605.520   116013342.71606      2587.523          38.750    22076610.800    90400034.58307      2016.215          43.000  
G02  21823751.480   114684587.67207      1596.301          44.500    21823751.760    89364619.61405      1243.859          34.750  
G27  21734340.900   114214731.95008     -2807.852          48.250    21734346.140    88998513.79608     -2187.934          50.250  
G08  20442420.820   107425645.21108      -678.879          49.750    20442425.000    83708312.69409      -529.000          54.250  
G21  21047629.820   110606041.02607       861.102          42.750    21047631.280    86186529.90706       670.992          38.750  
R24  19503620.880   104294622.14806       260.590          39.250  
R01  19634012.880   104955043.18507      1367.418          46.750    19634020.880    81631741.87706      1063.543          37.500  
R02  22554032.440   120352644.28806      4386.805          40.000  
> 2023 06 27 11 58 35.3000000  0  8
G01  22076556.300   116013084.03106      2586.570          39.000    22076561.580    90399833.00606      2015.469          41.250  
G02  21823721.120   114684428.07407      1596.063          44.500    21823721.380    89364495.24805      1243.672          33.750  
G27  21734394.340   114215012.72408     -2807.762          48.250    21734399.560    88998732.57808     -2187.863          49.250  
G08  20442433.760   107425713.13508      -679.266          49.750    20442437.920    83708365.62009      -529.301          54.250  
G21  21047613.440   110605955.01407       860.102          42.750    21047614.920    86186462.88506       670.215          36.250  
R24  19503616.000   104294596.08706       260.492          39.250  
R01  19633987.320   104954906.43907      1367.590          46.750    19633995.320    81631635.51306      1063.676          37.000  
R02  22553950.240   120352205.57106      4387.203          40.000  
> 2023 06 27 11 58 35.4000000  0  8
G01  22076507.040   116012825.19206      2588.586          39.000    22076512.320    90399631.30906      2017.039          41.250  
G02  21823690.740   114684268.42907      1596.340          45.000    21823691.000    89364370.84905      1243.742          33.750  
G27  21734447.760   114215293.48508     -2807.574          48.500    21734452.980    88998951.35508     -2187.715          49.250  
G08  20442446.680   107425781.02208      -678.844          49.750    20442450.840    83708418.51709      -528.973          54.250  
G21  21047597.040   110605868.92607       860.418          42.250    21047598.540    86186395.80406       670.461          36.250  
R24  19503611.220   104294570.11206       259.453          38.500  
R01  19633961.740   104954769.67807      1367.406          46.000    19633969.720    81631529.14406      1063.535          37.000  
R02  22553867.880   120351766.83406      4386.934          39.500  
> 2023 06 27 11 58 35.5000000  0  8
G01  22076457.780   116012566.47106      2587.988          38.750    22076462.980    90399429.70407      2016.574          41.750  
G02  21823660.360   114684108.82807      1596.176          45.000    21823660.480    89364246.48205      1243.762          32.000  
G27  21734501.200   114215574.27508     -2807.895          48.500    21734506.420    88999170.15208     -2187.965          49.750  
G08  20442459.600   107425848.91208      -678.902          49.750    20442463.760    83708471.41809      -529.023          54.000  
G21  21047580.660   110605782.85607       860.547          42.250    21047582.080    86186328.73606       670.555          38.750  
R24  19503606.360   104294544.17906       259.070          38.500  
R01  19633936.140   104954632.95707      1367.207          46.000    19633944.160    81631422.80506      1063.379          36.500  
R02  22553785.660   120351328.10906      4387.156          39.500  
> 2023 06 27 11 58 35.6000000  0  8
G01  22076408.540   116012307.72306      2587.793          38.750    22076413.740    90399228.07907      2016.422          41.750  
G02  21823629.980   114683949.18307      1596.582          45.000    21823630.100    89364122.08305      1244.078          32.000  
G27  21734554.640   114215855.04108     -2807.613          48.250    21734559.840    88999388.93108     -2187.746          49.750  
G08  20442472.520   107425916.82808      -679.086          49.500    20442476.680    83708524.34009      -529.164          54.000  
G21  21047564.280   110605696.80307       860.863          42.250    21047565.720    86186261.68406       670.801          38.750  
R24  19503601.440   104294518.08105       260.934          33.500  
R01  19633910.560   104954496.16407      1367.758          45.000    19633918.560    81631316.40806      1063.809          36.500  
R02  22553703.400   120350889.39606      4386.863          38.750  
> 2023 06 27 11 58 35.7000000  0  7
G01  22076359.300   116012048.88106      2588.363          38.750    22076364.480    90399026.37907      2016.867          41.750  
G02  21823599.600   114683789.51107      1596.664          45.000    21823599.720    89363997.66205      1244.141          32.000  
G27  21734608.060   114216135.79608     -2807.422          48.250    21734613.280    88999607.70008     -2187.598          50.500  
G08  20442485.440   107425984.71308      -678.828          49.500    20442489.600    83708577.23709      -528.965          54.000  
G21  21047547.900   110605610.70407       860.570          42.250    21047549.320    86186194.59206       670.574          38.750  
R01  19633884.980   104954359.43507      1367.500          45.000    19633892.980    81631210.06306      1063.605          36.750  
R02  22553621.180   120350450.66806      4387.563          38.750  
> 2023 06 27 11 58 35.8000000  0  7
G01  22076310.060   116011790.15006      2587.617          39.000    22076315.240    90398824.76807      2016.285          42.500  
G02  21823569.220   114683629.87407      1596.430          45.000    21823569.340    89363873.26905      1243.961          34.500  
G27  21734661.480   114216416.55708     -2807.512          48.250    21734666.700    88999826.47808     -2187.668          50.500  
G08  20442498.360   107426052.58408      -678.703          49.250    20442502.520    83708630.12209      -528.867          54.000  
G21  21047531.520   110605524.56107       861.668          42.250    21047532.940    86186127.46706       671.430          38.750  
R01  19633859.400   104954222.66607      1367.789          45.000    19633867.400    81631103.68706      1063.832          36.500  
R02  22553539.000   120350011.89206      4388.246          40.250  
> 2023 06 27 11 58 35.9000000  0  7
G01  22076260.800   116011531.35206      2587.496          39.000    22076266.000    90398623.10207      2016.191          42.500  
G02  21823538.840   114683470.16807      1597.148          45.500    21823538.960    89363748.82505      1244.520          34.500  
G27  21734714.900   114216697.26507     -2806.953          47.000    21734720.120    89000045.21008     -2187.230          50.500  
G08  20442511.260   107426120.46408      -678.668          49.250    20442515.440    83708683.01509      -528.840          54.000  
G21  21047515.140   110605438.47307       861.047          43.250    21047516.560    86186060.38406       670.945          38.750  
R01  19633833.760   104954085.89707      1367.875          44.500    19633841.820    81630997.30906      1063.898          36.000  
R02  22553456.780   120349573.13406      4387.766          40.250  
> 2023 06 27 11 58 36.0000000  0  7
G01  22076211.520   116011272.47406      2588.629          39.250    22076216.820    90398421.37406      2017.070          40.000  
G02  21823508.460   114683310.52807      1596.555          45.500    21823508.580    89363624.42805      1244.059          31.250  
G27  21734768.320   114216977.99207     -2807.141          47.000    21734773.540    89000263.96408     -2187.371          51.000  
G08  20442524.180   107426188.32508      -678.598          49.500    20442528.340    83708735.89309      -528.781          54.250  
G21  21047498.740   110605352.30907       861.477          43.250    21047500.180    86185993.24106       671.281          39.000  
R01  19633808.180   104953949.11107      1367.895          44.500    19633816.240    81630890.92306      1064.008          35.500  
R02  22553374.580   120349134.37606      4387.820          40.250  
> 2023 06 27 11 58 36.1000000  0  7
G01  22076162.320   116011013.72306      2587.953          39.250    22076167.580    90398219.74406      2016.543          40.000  
G02  21823478.060   114683150.80907      1597.215          45.500    21823478.200    89363499.97405      1244.570          31.250  
G27  21734821.740   114217258.73407     -2807.301          46.500    21734826.980    89000482.72808     -2187.496          51.000  
G08  20442537.100   107426256.20608      -678.836          49.500    20442541.260    83708788.78809      -528.969          54.250  
G21  21047482.360   110605266.21307       861.359          43.250    21047483.800    86185926.15506       671.187          39.000  
R01  19633782.600   104953812.31607      1367.855          44.750    19633790.640    81630784.52605      1063.883          34.750  
R02  22553292.340   120348695.58406      4387.621          38.500  
> 2023 06 27 11 58 36.2000000  0  9
G01  22076113.060   116010754.85006      2588.320          40.250    22076118.320    90398018.01907      2016.828          44.000  
G14  24286042.100   127624004.24506      1841.758          40.750    24286048.520    99447271.22404      1435.137          28.750  
G02  21823447.680   114682991.15007      1596.879          45.500    21823447.820    89363375.56305      1244.309          34.750  
G27  21734875.160   114217539.48207     -2807.391          46.500    21734880.400    89000701.49508     -2187.566          51.500  
G08  20442550.020   107426324.08008      -678.738          49.500    20442554.180    83708841.67909      -528.891          54.500  
G10  22170060.280   116504442.56205     -2512.840          33.500  
G21  21047465.980   110605180.05907       861.531          43.250    21047467.400    86185859.02006       671.324          38.250  
R01  19633757.020   104953675.55207      1367.617          44.750    19633765.060    81630678.15405      1063.699          34.000  
R02  22553210.060   120348256.87206      4387.547          38.500  
> 2023 06 27 11 58 36.3000000  0  9
G01  22076063.820   116010496.05006      2588.379          40.250    22076069.080    90397816.35007      2016.875          44.000  
G14  24286007.040   127623820.02406      1841.586          40.750    24286013.460    99447127.66705      1435.004          33.500  
G02  21823417.280   114682831.42107      1597.406          45.250    21823417.420    89363251.09605      1244.719          34.750  
G27  21734928.580   114217820.19307     -2807.070          45.750    21734933.820    89000920.23708     -2187.316          51.500  
G08  20442562.940   107426391.93908      -678.441          49.500    20442567.100    83708894.55409      -528.660          54.500  
G10  22170108.120   116504693.92105     -2513.797          33.500  
G21  21047449.580   110605093.94507       861.066          43.250    21047451.020    86185791.92006       670.961          38.250  
R01  19633731.460   104953538.80407      1367.406          43.750    19633739.560    81630571.79505      1063.539          34.000  
R02  22553127.820   120347818.08206      4387.824          39.750  
> 2023 06 27 11 58 36.4000000  0  9
G01  22076014.580   116010237.26306      2587.719          40.250    22076019.820    90397614.69207      2016.359          44.000  
G14  24285971.680   127623635.83807      1842.043          41.500    24285978.420    99446984.13505      1435.359          33.500  
G02  21823386.900   114682671.76207      1596.605          45.250    21823387.040    89363126.68905      1244.098          34.750  
G27  21734982.000   114218100.87507     -2806.793          45.750    21734987.240    89001138.95808     -2187.145          51.500  
G08  20442575.840   107426459.77908      -678.512          49.500    20442580.000    83708947.41609      -528.715          54.500  
G10  22170155.340   116504945.17805     -2512.543          33.500  
G21  21047433.200   110605007.77607       861.582          43.250    21047434.620    86185724.77106       671.363          38.250  
R01  19633705.880   104953402.01307      1367.715          43.750    19633713.980    81630465.40405      1063.777          35.250  
R02  22553045.620   120347379.33006      4387.297          39.750  
> 2023 06 27 11 58 36.5000000  0  9
G01  22075965.360   116009978.39206      2588.750          40.250    22075970.700    90397412.97207      2017.168          42.250  
G14  24285936.620   127623451.63107      1841.789          41.500    24285945.740    99446840.59304      1435.160          28.500  
G02  21823356.500   114682512.01207      1597.500          45.250    21823356.760    89363002.20805      1244.797          34.750  
G27  21735035.420   114218381.61407     -2807.230          45.750    21735040.660    89001357.71808     -2187.438          52.250  
G08  20442588.760   107426527.66808      -678.801          49.250    20442592.940    83709000.31709      -528.941          54.500  
G10  22170203.180   116505196.48905     -2512.707          35.000  
G21  21047416.800   110604921.68007       860.879          43.250    21047418.240    86185657.68306       670.816          38.500  
R01  19633680.260   104953265.26307      1367.289          43.750    19633688.400    81630359.04706      1063.445          35.750  
R02  22552963.380   120346940.52906      4387.699          39.750  
> 2023 06 27 11 58 36.6000000  0  9
G01  22075916.120   116009719.63906      2587.594          40.250    22075921.460    90397211.34707      2016.270          42.250  
G14  24285901.840   127623267.63307      1841.090          41.500    24285910.720    99446697.22204      1434.617          28.500  
G02  21823326.120   114682352.38207      1596.352          45.250    21823326.380    89362877.82305      1243.902          34.750  
G27  21735088.840   114218662.34107     -2807.277          46.000    21735094.080    89001576.47108     -2187.473          52.250  
G08  20442601.680   107426595.55308      -678.930          49.250    20442605.860    83709053.21409      -529.039          54.500  
G10  22170249.640   116505447.83005     -2512.691          35.000  
G21  21047400.420   110604835.52107       861.590          43.500    21047401.840    86185590.54906       671.367          38.500  
R01  19633654.680   104953128.57407      1366.922          42.250    19633662.820    81630252.73506      1063.160          37.000  
R02  22552881.240   120346501.78206      4387.426          38.750  
> 2023 06 27 11 58 36.7000000  0  9
G01  22075866.880   116009460.78406      2588.227          40.500    22075872.200    90397009.64207      2016.762          44.000  
G14  24285866.760   127623083.32607      1842.191          41.500    24285875.660    99446553.61004      1435.473          28.500  
G02  21823295.720   114682192.69507      1596.652          45.250    21823295.980    89362753.39205      1244.188          35.000  
G27  21735142.260   114218943.05207     -2807.238          46.000    21735147.500    89001795.21408     -2187.441          52.500  
G08  20442614.600   107426663.40908      -678.695          49.250    20442618.760    83709106.09109      -528.855          54.250  
G10  22170297.420   116505698.89705     -2511.133          29.750  
G21  21047384.040   110604749.42707       861.027          43.500    21047385.460    86185523.46306       670.930          39.500  
R01  19633629.060   104952991.79407      1367.445          42.250    19633637.240    81630146.35306      1063.570          37.250  
R02  22552799.020   120346063.02706      4387.168          38.750  
> 2023 06 27 11 58 36.8000000  0  9
G01  22075817.640   116009201.96606      2589.176          40.500    22075822.960    90396807.96507      2017.500          44.000  
G14  24285831.800   127622899.25307      1842.652          41.500    24285840.620    99446410.17605      1435.832          32.000  
G02  21823265.340   114682032.97907      1597.070          44.500    21823265.600    89362628.94005      1244.461          35.000  
G27  21735195.680   114219223.76507     -2807.102          47.000    21735200.920    89002013.95408     -2187.336          52.500  
G08  20442627.520   107426731.27008      -678.687          49.250    20442631.680    83709158.96709      -528.852          54.250  
G10  22170344.860   116505950.45305     -2515.629          29.750  
G21  21047367.640   110604663.25307       861.449          43.250    21047369.060    86185456.31606       671.258          39.500  
R01  19633603.480   104952855.09407      1367.020          41.750    19633611.680    81630040.03106      1063.242          36.750  
R02  22552716.860   120345624.24805      4387.125          34.500  
> 2023 06 27 11 58 36.9000000  0  9
G01  22075768.380   116008943.20306      2587.305          40.500    22075773.720    90396606.32907      2016.043          44.000  
G14  24285796.760   127622715.09307      1841.945          41.500    24285805.580    99446266.67705      1435.281          32.000  
G02  21823234.960   114681873.31507      1597.059          44.500    21823235.220    89362504.52805      1244.453          35.000  
G27  21735249.100   114219504.50807     -2807.395          47.000    21735254.340    89002232.72108     -2187.566          51.750  
G08  20442640.440   107426799.19608      -679.211          49.250    20442644.600    83709211.89509      -529.258          54.250  
G10  22170392.720   116506201.91705     -2514.250          31.500    22170399.160    90784077.93315     -1959.156          35.000  
G21  21047351.260   110604577.21507       860.941          43.250    21047352.700    86185389.27106       670.863          39.500  
R01  19633577.860   104952718.34407      1367.465          41.750    19633586.100    81629933.67406      1063.586          36.500  
R02  22552634.660   120345185.52505      4387.340          34.500  
> 2023 06 27 11 58 37.0000000  0  9
G01  22075719.140   116008684.38206      2587.902          39.000    22075724.680    90396404.65507      2016.520          42.500  
G14  24285761.700   127622531.00107      1841.473          41.500    24285769.840    99446123.23505      1434.914          32.250  
G02  21823204.580   114681713.65407      1596.402          44.500    21823204.760    89362380.11705      1243.941          34.500  
G27  21735302.520   114219785.25007     -2807.539          47.000    21735307.780    89002451.48508     -2187.676          51.750  
G08  20442653.360   107426867.08108      -678.887          48.750    20442657.520    83709264.79409      -529.008          54.250  
G10  22170440.080   116506453.19905     -2512.824          31.500    22170446.980    90784273.74405     -1958.043          35.000  
G21  21047334.860   110604491.00607       861.750          43.250    21047336.260    86185322.09506       671.492          38.500  
R01  19633552.300   104952581.64707      1367.172          41.750    19633560.540    81629827.36006      1063.359          36.250  
R02  22552552.440   120344746.69605      4387.691          34.000  
> 2023 06 27 11 58 37.1000000  0  9
G01  22075669.880   116008425.56906      2587.875          39.000    22075675.420    90396202.98607      2016.500          42.500  
G14  24285726.640   127622346.83807      1840.785          41.500    24285734.800    99445979.73805      1434.379          32.250  
G02  21823174.160   114681553.90907      1597.324          44.000    21823174.360    89362255.64005      1244.660          34.500  
G27  21735355.940   114220065.99007     -2807.547          47.250    21735361.200    89002670.24808     -2187.684          51.750  
G08  20442666.260   107426934.93908      -678.660          48.750    20442670.440    83709317.66709      -528.828          54.250  
G10  22170487.880   116506704.41105     -2512.078          31.500    22170494.780    90784469.50105     -1957.465          35.000  
G21  21047318.460   110604404.86007       861.562          42.500    21047319.860    86185254.96906       671.348          38.500  
R01  19633526.720   104952444.92907      1366.984          41.750    19633534.960    81629721.02605      1063.215          35.250  
R02  22552470.220   120344307.97005      4387.430          34.000  
> 2023 06 27 11 58 37.2000000  0  9
G01  22075620.640   116008166.75006      2588.129          38.500    22075626.180    90396001.30907      2016.695          42.250  
G14  24285691.780   127622162.53607      1842.355          41.500    24285699.720    99445836.13005      1435.602          32.250  
G02  21823143.780   114681394.23407      1597.137          44.000    21823143.980    89362131.21905      1244.594          35.000  
G27  21735409.360   114220346.70107     -2807.070          47.250    21735414.620    89002888.98308     -2187.313          52.250  
G08  20442679.180   107427002.86008      -679.363          48.250    20442683.360    83709370.59409      -529.379          53.750  
G10  22170535.180   116506955.65705     -2512.172          32.250    22170542.600    90784665.28507     -1957.535          41.500  
G21  21047302.080   110604318.79807       860.754          42.500    21047303.500    86185187.90606       670.719          38.250  
R01  19633501.140   104952308.20807      1367.215          41.750    19633509.380    81629614.69105      1063.395          34.000  
R02  22552388.040   120343869.18505      4387.531          34.000  
> 2023 06 27 11 58 37.3000000  0  9
G01  22075571.400   116007908.00506      2587.574          38.500    22075576.940    90395799.69607      2016.266          42.250  
G14  24285656.740   127621978.43907      1841.906          41.500    24285664.700    99445692.68606      1435.250          38.750  
G02  21823113.400   114681234.55807      1596.402          44.000    21823113.600    89362006.79705      1243.941          35.000  
G27  21735462.780   114220627.45108     -2807.379          48.000    21735468.040    89003107.75208     -2187.551          52.250  
G08  20442692.120   107427070.78708      -679.266          48.250    20442696.300    83709423.52409      -529.301          53.750  
G10  22170582.980   116507206.89005     -2511.852          32.250    22170592.520    90784861.05507     -1957.285          41.500  
G21  21047285.680   110604232.53407       862.570          43.000    21047287.080    86185120.68706       672.133          38.250  
R01  19633475.620   104952171.46206      1367.273          41.250    19633483.820    81629508.33805      1063.438          32.750  
R02  22552305.800   120343430.38006      4387.934          37.750  
> 2023 06 27 11 58 37.4000000  0  9
G01  22075522.140   116007649.21106      2587.551          37.500    22075527.700    90395598.03807      2016.246          42.000  
G14  24285621.240   127621794.29206      1841.828          40.750    24285629.660    99445549.19906      1435.191          38.750  
G02  21823082.980   114681074.79907      1597.750          44.000    21823083.200    89361882.30605      1244.996          33.500  
G27  21735516.220   114220908.18608     -2807.387          48.000    21735521.460    89003326.51008     -2187.559          52.000  
G08  20442705.040   107427138.66908      -678.805          48.250    20442709.200    83709476.41709      -528.941          54.250  
G10  22170630.820   116507458.15105     -2512.621          34.250    22170640.320    90785056.84107     -1957.887          44.000  
G21  21047269.320   110604146.52807       860.473          43.000    21047270.700    86185053.67106       670.500          37.500  
R01  19633450.040   104952034.80006      1366.926          41.250    19633458.240    81629402.04805      1063.168          31.000  
R02  22552223.560   120342991.64306      4387.551          37.750  
> 2023 06 27 11 58 37.5000000  0  9
G01  22075472.820   116007390.17206      2590.625          37.500    22075478.580    90395396.19507      2018.645          42.000  
G14  24285586.200   127621610.22206      1840.945          40.750    24285592.680    99445405.76905      1434.504          32.250  
G02  21823052.620   114680915.17207      1596.477          44.000    21823052.780    89361757.92605      1244.004          33.500  
G27  21735569.640   114221188.93308     -2807.594          48.000    21735574.900    89003545.27408     -2187.723          52.000  
G08  20442717.960   107427206.58008      -679.125          48.000    20442722.140    83709529.33509      -529.195          54.250  
G10  22170678.640   116507709.50205     -2513.508          34.250    22170688.160    90785252.69707     -1958.578          44.000  
G21  21047252.900   110604060.29507       862.066          43.750    21047254.340    86184986.47506       671.738          37.500  
R01  19633424.540   104951898.10906      1366.445          39.750    19633432.680    81629295.73405      1062.793          31.250  
R02  22552141.340   120342552.89906      4387.777          38.250  
> 2023 06 27 11 58 37.6000000  0  9
G01  22075423.600   116007131.50306      2588.648          37.500    22075429.360    90395194.63807      2017.105          42.000  
G14  24285551.260   127621425.92007      1841.852          41.750    24285557.620    99445262.15905      1435.211          32.250  
G02  21823022.220   114680755.42407      1597.043          44.000    21823022.380    89361633.44705      1244.445          33.500  
G27  21735623.060   114221469.68108     -2807.512          48.000    21735628.320    89003764.03908     -2187.660          52.000  
G08  20442730.880   107427274.49808      -679.227          48.000    20442735.060    83709582.25809      -529.273          54.250  
G10  22170726.780   116507960.73005     -2512.387          34.250    22170735.960    90785448.45507     -1957.703          44.000  
G21  21047236.540   110603974.20707       860.988          43.750    21047237.940    86184919.39506       670.898          37.500  
R01  19633398.960   104951761.42006      1367.090          39.750    19633407.100    81629189.42405      1063.297          32.250  
R02  22552059.160   120342114.20306      4386.980          38.250  
> 2023 06 27 11 58 37.7000000  0  9
G01  22075374.320   116006872.62206      2588.297          40.000    22075380.100    90394992.91207      2016.832          41.500  
G14  24285516.220   127621241.73307      1842.691          41.750    24285522.560    99445118.63805      1435.863          32.750  
G02  21822991.820   114680595.72107      1597.586          44.000    21822992.000    89361509.00105      1244.867          31.750  
G27  21735676.480   114221750.44208     -2807.609          48.000    21735681.740    89003982.81308     -2187.766          51.750  
G08  20442743.800   107427342.42008      -679.262          48.250    20442747.980    83709635.18209      -529.301          54.500  
G10  22170774.600   116508211.96206     -2512.543          36.500    22170783.780    90785644.21906     -1957.824          40.500  
G21  21047220.140   110603887.99807       861.977          43.750    21047221.540    86184852.22006       671.672          38.500  
R01  19633373.420   104951624.77606      1366.168          39.750    19633381.540    81629083.15005      1062.578          34.750  
R02  22551976.940   120341675.43406      4387.574          38.250  
> 2023 06 27 11 58 37.8000000  0  9
G01  22075325.060   116006613.85606      2588.285          40.000    22075330.860    90394791.27807      2016.820          41.500  
G14  24285480.840   127621057.66507      1841.809          41.750    24285487.540    99444975.21005      1435.176          32.750  
G02  21822961.420   114680436.06307      1596.105          44.750    21822961.620    89361384.59405      1243.715          31.750  
G27  21735729.920   114222031.20508     -2807.715          47.500    21735735.180    89004201.59208     -2187.816          51.750  
G08  20442756.720   107427410.33008      -679.133          48.250    20442760.920    83709688.10009      -529.203          54.500  
G10  22170822.560   116508463.27906     -2512.898          36.500    22170828.780    90785840.04606     -1958.102          40.500  
G21  21047203.780   110603801.94207       860.602          43.500    21047205.160    86184785.16506       670.598          38.500  
R01  19633347.860   104951488.09806      1366.566          38.250    19633356.000    81628976.84706      1062.898          35.750  
R02  22551894.760   120341236.75106      4386.844          37.500  
> 2023 06 27 11 58 37.9000000  0  9
G01  22075275.840   116006355.17906      2586.930          39.000    22075281.640    90394589.71606      2015.766          40.000  
G14  24285445.800   127620873.58906      1841.039          40.750    24285452.520    99444831.77405      1434.574          32.750  
G02  21822931.040   114680276.32507      1597.504          44.750    21822931.220    89361260.12505      1244.805          33.500  
G27  21735783.340   114222311.97608     -2807.840          47.500    21735788.600    89004420.37308     -2187.914          51.250  
G08  20442769.660   107427478.28308      -679.680          48.250    20442773.840    83709741.05009      -529.629          55.250  
G10  22170870.380   116508714.53306     -2512.688          37.500    22170876.600    90786035.82406     -1957.938          39.250  
G21  21047187.380   110603715.74407       861.746          43.500    21047188.760    86184717.99906       671.492          39.750  
R01  19633322.280   104951351.48906      1366.098          38.250    19633330.440    81628870.60006      1062.531          36.750  
R02  22551812.540   120340798.02006      4387.313          37.500  
> 2023 06 27 11 58 38.0000000  0  9
G01  22075226.560   116006096.19506      2589.441          39.000    22075232.220    90394387.91306      2017.734          40.000  
G14  24285410.460   127620689.51006      1840.461          40.750    24285415.940    99444688.33805      1434.125          33.500  
G02  21822900.660   114680116.69307      1595.988          44.250    21822900.780    89361135.73405      1243.621          33.500  
G27  21735836.760   114222592.75807     -2807.801          47.000    21735842.040    89004639.16408     -2187.887          51.250  
G08  20442782.600   107427546.23408      -679.520          48.500    20442786.780    83709793.99609      -529.504          55.250  
G10  22170919.120   116508965.85506     -2513.285          37.500    22170924.420    90786231.65506     -1958.402          39.250  
G21  21047171.020   110603629.70307       860.469          43.250    21047172.400    86184650.95206       670.496          39.750  
R01  19633296.720   104951214.85606      1366.293          39.750    19633304.880    81628764.33406      1062.684          37.500  
R02  22551730.240   120340359.29506      4387.473          37.250  
> 2023 06 27 11 58 38.1000000  0  9
G01  22075177.340   116005837.43506      2588.672          39.000    22075182.980    90394186.29106      2017.137          40.000  
G14  24285375.400   127620505.24007      1842.055          41.500    24285380.880    99444544.75505      1435.367          33.500  
G02  21822870.260   114679956.97207      1597.348          44.250    21822870.400    89361011.27405      1244.680          33.500  
G27  21735890.200   114222873.52907     -2807.891          47.000    21735895.460    89004857.94508     -2187.953          50.500  
G08  20442795.520   107427614.18608      -679.418          48.500    20442799.720    83709846.94409      -529.426          55.250  
G10  22170966.980   116509217.27205     -2514.094          32.000    22170972.260    90786427.55606     -1959.035          35.500  
G21  21047154.600   110603543.50707       861.852          43.250    21047156.000    86184583.78706       671.574          39.750  
R01  19633271.160   104951078.22106      1365.984          39.750    19633279.320    81628658.06806      1062.445          38.500  
R02  22551648.020   120339920.55806      4387.770          37.250  
> 2023 06 27 11 58 38.2000000  0  9
G01  22075128.140   116005578.83706      2586.004          40.000    22075133.780    90393984.79307      2015.055          43.250  
G14  24285340.340   127620321.07707      1842.758          41.500    24285345.840    99444401.25405      1435.914          33.000  
G02  21822839.880   114679797.28207      1596.754          44.250    21822840.000    89360886.83605      1244.215          33.750  
G27  21735943.620   114223154.30907     -2807.805          47.000    21735948.900    89005076.73208     -2187.926          50.500  
G08  20442808.440   107427682.12608      -679.336          49.000    20442812.640    83709899.88409      -529.359          54.500  
G10  22171015.020   116509468.45205     -2512.156          32.000    22171020.060    90786623.27906     -1957.523          35.500  
G21  21047138.220   110603457.39307       861.324          43.250    21047139.620    86184516.68706       671.160          38.000  
R01  19633245.600   104950941.56106      1366.617          39.750    19633253.760    81628551.78206      1062.938          38.500  
R02  22551565.820   120339481.88306      4386.738          39.000  
> 2023 06 27 11 58 38.3000000  0  9
G01  22075078.860   116005319.71406      2589.988          40.000    22075084.460    90393782.88507      2018.160          43.250  
G14  24285305.280   127620136.87507      1842.410          41.500    24285310.780    99444257.72105      1435.645          33.000  
G02  21822809.500   114679637.59407      1597.039          43.000    21822809.620    89360762.40005      1244.438          33.750  
G27  21735997.060   114223435.09807     -2807.863          47.250    21736002.340    89005295.53108     -2187.977          50.500  
G08  20442821.380   107427750.06308      -679.469          49.000    20442825.560    83709952.82009      -529.465          54.500  
G10  22171062.820   116509719.69505     -2512.188          32.000    22171068.320    90786819.04506     -1957.547          35.500  
G21  21047121.820   110603371.28107       860.848          43.000    21047123.220    86184449.58706       670.789          38.000  
R01  19633220.040   104950804.91506      1366.516          40.750    19633228.220    81628445.50506      1062.852          38.250  
R02  22551483.600   120339043.19806      4386.836          39.000  
> 2023 06 27 11 58 38.4000000  0  9
G01  22075029.640   116005061.13506      2586.883          38.250    22075035.260    90393581.40206      2015.742          39.500  
G14  24285270.340   127619952.85707      1841.223          42.000    24285275.760    99444114.33505      1434.719          33.000  
G02  21822779.100   114679477.83907      1597.492          43.000    21822779.220    89360637.91105      1244.793          34.250  
G27  21736050.500   114223715.89307     -2807.949          47.250    21736055.760    89005514.33008     -2188.000          50.750  
G08  20442834.300   107427818.01308      -679.523          49.000    20442838.500    83710005.77109      -529.508          54.250  
G10  22171111.000   116509971.01505     -2512.738          34.500    22171116.140    90787014.87006     -1957.977          39.250  
G21  21047105.440   110603285.05407       862.648          43.000    21047106.820    86184382.39706       672.195          38.500  
R01  19633194.480   104950668.27706      1366.586          40.750    19633202.660    81628339.23106      1062.906          38.250  
R02  22551401.380   120338604.48306      4387.520          39.000  
